[
  {
    "icao": "00AK",
    "iata": "",
    "name": "Lowell Field",
    "city": "Anchor Point",
    "state": "Alaska",
    "country": "US",
    "elevation": 450,
    "lat": 59.94919968,
    "lon": -151.695999146,
    "tz": "America/Anchorage"
  },
  {
    "icao": "00AL",
    "iata": "",
    "name": "Epps Airpark",
    "city": "Harvest",
    "state": "Alabama",
    "country": "US",
    "elevation": 820,
    "lat": 34.8647994995,
    "lon": -86.7703018188,
    "tz": "America/Chicago"
  },
  {
    "icao": "00AZ",
    "iata": "",
    "name": "Cordes Airport",
    "city": "Cordes",
    "state": "Arizona",
    "country": "US",
    "elevation": 3810,
    "lat": 34.3055992126,
    "lon": -112.1650009155,
    "tz": "America/Phoenix"
  },
  {
    "icao": "00CA",
    "iata": "",
    "name": "Goldstone /Gts/ Airport",
    "city": "Barstow",
    "state": "California",
    "country": "US",
    "elevation": 3038,
    "lat": 35.3504981995,
    "lon": -116.888000488,
    "tz": "America/Los_Angeles"
  },
  {
    "icao": "00CO",
    "iata": "",
    "name": "Cass Field",
    "city": "Briggsdale",
    "state": "Colorado",
    "country": "US",
    "elevation": 4830,
    "lat": 40.6222000122,
    "lon": -104.34400177,
    "tz": "America/Denver"
  },
  {
    "icao": "00FA",
    "iata": "",
    "name": "Grass Patch Airport",
    "city": "Bushnell",
    "state": "Florida",
    "country": "US",
    "elevation": 53,
    "lat": 28.6455001831,
    "lon": -82.21900177,
    "tz": "America/New_York"
  },
  {
    "icao": "00FL",
    "iata": "",
    "name": "River Oak Airport",
    "city": "Okeechobee",
    "state": "Florida",
    "country": "US",
    "elevation": 35,
    "lat": 27.2308998108,
    "lon": -80.9692001343,
    "tz": "America/New_York"
  },
  {
    "icao": "00GA",
    "iata": "",
    "name": "Lt World Airport",
    "city": "Lithonia",
    "state": "Georgia",
    "country": "US",
    "elevation": 700,
    "lat": 33.7675018311,
    "lon": -84.0682983398,
    "tz": "America/New_York"
  },
  {
    "icao": "00ID",
    "iata": "",
    "name": "Delta Shores Airport",
    "city": "Clark Fork",
    "state": "Idaho",
    "country": "US",
    "elevation": 2064,
    "lat": 48.1453018188,
    "lon": -116.2139968872,
    "tz": "America/Los_Angeles"
  },
  {
    "icao": "00IL",
    "iata": "",
    "name": "Hammer Airport",
    "city": "Polo",
    "state": "Illinois",
    "country": "US",
    "elevation": 840,
    "lat": 41.9784011841,
    "lon": -89.5604019165,
    "tz": "America/Chicago"
  },
  {
    "icao": "00IS",
    "iata": "",
    "name": "Hayenga's Cant Find Farms Airport",
    "city": "Kings",
    "state": "Illinois",
    "country": "US",
    "elevation": 820,
    "lat": 40.0256004333,
    "lon": -89.1229019165,
    "tz": "America/Chicago"
  },
  {
    "icao": "00KS",
    "iata": "",
    "name": "Hayden Farm Airport",
    "city": "Gardner",
    "state": "Kansas",
    "country": "US",
    "elevation": 1100,
    "lat": 38.7277984619,
    "lon": -94.9304962158,
    "tz": "America/Chicago"
  },
  {
    "icao": "00KY",
    "iata": "",
    "name": "Robbins Roost Airport",
    "city": "Stanford",
    "state": "Kentucky",
    "country": "US",
    "elevation": 1265,
    "lat": 37.4094009399,
    "lon": -84.6196975708,
    "tz": "America/New_York"
  },
  {
    "icao": "00LS",
    "iata": "",
    "name": "Lejeune Airport",
    "city": "Esterwood",
    "state": "Louisiana",
    "country": "US",
    "elevation": 12,
    "lat": 30.1362991333,
    "lon": -92.429397583,
    "tz": "America/Chicago"
  },
  {
    "icao": "00MD",
    "iata": "",
    "name": "Slater Field",
    "city": "Federalsburg",
    "state": "Maryland",
    "country": "US",
    "elevation": 45,
    "lat": 38.7570991516,
    "lon": -75.7537994385,
    "tz": "America/New_York"
  },
  {
    "icao": "00MN",
    "iata": "",
    "name": "Battle Lake Municipal Airport",
    "city": "Battle Lake",
    "state": "Minnesota",
    "country": "US",
    "elevation": 1365,
    "lat": 46.2999992371,
    "lon": -95.700302124,
    "tz": "America/Chicago"
  },
  {
    "icao": "00MO",
    "iata": "",
    "name": "Cooper Flying Service Airport",
    "city": "Alba",
    "state": "Missouri",
    "country": "US",
    "elevation": 970,
    "lat": 37.2028007507,
    "lon": -94.412399292,
    "tz": "America/Chicago"
  },
  {
    "icao": "00MT",
    "iata": "",
    "name": "Sands Ranch Airport",
    "city": "Havre",
    "state": "Montana",
    "country": "US",
    "elevation": 2600,
    "lat": 48.5374984741,
    "lon": -109.7050018311,
    "tz": "America/Denver"
  },
  {
    "icao": "00NC",
    "iata": "",
    "name": "North Raleigh Airport",
    "city": "Louisburg",
    "state": "North Carolina",
    "country": "US",
    "elevation": 348,
    "lat": 36.0852012634,
    "lon": -78.3713989258,
    "tz": "America/New_York"
  },
  {
    "icao": "00NY",
    "iata": "",
    "name": "Weiss Airfield",
    "city": "West Bloomfield",
    "state": "New York",
    "country": "US",
    "elevation": 1000,
    "lat": 42.900100708,
    "lon": -77.4997024536,
    "tz": "America/New_York"
  },
  {
    "icao": "00OH",
    "iata": "",
    "name": "Exit 3 Airport",
    "city": "Wauseon",
    "state": "Ohio",
    "country": "US",
    "elevation": 785,
    "lat": 41.5909004211,
    "lon": -84.1421966553,
    "tz": "America/New_York"
  },
  {
    "icao": "00PN",
    "iata": "",
    "name": "Ferrell Field",
    "city": "Mercer",
    "state": "Pennsylvania",
    "country": "US",
    "elevation": 1301,
    "lat": 41.2995,
    "lon": -80.211111,
    "tz": "America/New_York"
  },
  {
    "icao": "00PS",
    "iata": "",
    "name": "Thomas Field",
    "city": "Loysville",
    "state": "Pennsylvania",
    "country": "US",
    "elevation": 815,
    "lat": 40.3777999878,
    "lon": -77.3653030396,
    "tz": "America/New_York"
  },
  {
    "icao": "00SC",
    "iata": "",
    "name": "Flying O Airport",
    "city": "Sumter",
    "state": "South Carolina",
    "country": "US",
    "elevation": 150,
    "lat": 34.0093994141,
    "lon": -80.2671966553,
    "tz": "America/New_York"
  },
  {
    "icao": "00TN",
    "iata": "",
    "name": "Ragsdale Road Airport",
    "city": "Manchester",
    "state": "Tennessee",
    "country": "US",
    "elevation": 1100,
    "lat": 35.5158996582,
    "lon": -85.9535980225,
    "tz": "America/Chicago"
  },
  {
    "icao": "00TS",
    "iata": "",
    "name": "Alpine Range Airport",
    "city": "Everman",
    "state": "Texas",
    "country": "US",
    "elevation": 670,
    "lat": 32.6076011658,
    "lon": -97.2419967651,
    "tz": "America/Chicago"
  },
  {
    "icao": "00VA",
    "iata": "",
    "name": "Vaughan Airport",
    "city": "Alton",
    "state": "Virginia",
    "country": "US",
    "elevation": 551,
    "lat": 36.57600021,
    "lon": -78.9991684,
    "tz": "America/New_York"
  },
  {
    "icao": "00VI",
    "iata": "",
    "name": "Groundhog Mountain Airport",
    "city": "Hillsville",
    "state": "Virginia",
    "country": "US",
    "elevation": 2680,
    "lat": 36.6632995605,
    "lon": -80.49949646,
    "tz": "America/New_York"
  },
  {
    "icao": "00WA",
    "iata": "",
    "name": "Howell Airport",
    "city": "Longbranch",
    "state": "Washington",
    "country": "US",
    "elevation": 150,
    "lat": 47.1783981323,
    "lon": -122.7720031738,
    "tz": "America/Los_Angeles"
  },
  {
    "icao": "00WI",
    "iata": "",
    "name": "Northern Lite Airport",
    "city": "Waupaca",
    "state": "Wisconsin",
    "country": "US",
    "elevation": 860,
    "lat": 44.3042984009,
    "lon": -89.0501022339,
    "tz": "America/Chicago"
  },
  {
    "icao": "00WN",
    "iata": "",
    "name": "Hawks Run Airport",
    "city": "Asotin",
    "state": "Washington",
    "country": "US",
    "elevation": 2900,
    "lat": 46.25,
    "lon": -117.2490005493,
    "tz": "America/Los_Angeles"
  },
  {
    "icao": "00WV",
    "iata": "",
    "name": "Lazy J. Aerodrome",
    "city": "Beverly",
    "state": "West Virginia",
    "country": "US",
    "elevation": 2060,
    "lat": 38.8288993835,
    "lon": -79.8660964966,
    "tz": "America/New_York"
  },
  {
    "icao": "00XS",
    "iata": "",
    "name": "L P Askew Farms Airport",
    "city": "O'Donnell",
    "state": "Texas",
    "country": "US",
    "elevation": 3110,
    "lat": 33.0334014893,
    "lon": -101.9339981079,
    "tz": "America/Chicago"
  },
  {
    "icao": "01AL",
    "iata": "",
    "name": "Ware Island Airport",
    "city": "Clanton",
    "state": "Alabama",
    "country": "US",
    "elevation": 344,
    "lat": 32.9459991455,
    "lon": -86.5139007568,
    "tz": "America/Chicago"
  },
  {
    "icao": "01CL",
    "iata": "",
    "name": "Swansboro Country Airport",
    "city": "Placerville",
    "state": "California",
    "country": "US",
    "elevation": 2594,
    "lat": 38.7999000549,
    "lon": -120.7340011597,
    "tz": "America/Los_Angeles"
  },
  {
    "icao": "01FA",
    "iata": "",
    "name": "Rybolt Ranch Airport",
    "city": "Orlando",
    "state": "Florida",
    "country": "US",
    "elevation": 55,
    "lat": 28.5893993378,
    "lon": -81.144203186,
    "tz": "America/New_York"
  },
  {
    "icao": "01FL",
    "iata": "",
    "name": "Cedar Knoll Flying Ranch Airport",
    "city": "Geneva",
    "state": "Florida",
    "country": "US",
    "elevation": 19,
    "lat": 28.7819004059,
    "lon": -81.1592025757,
    "tz": "America/New_York"
  },
  {
    "icao": "01GE",
    "iata": "",
    "name": "The Farm Airport",
    "city": "Wrightsville",
    "state": "Georgia",
    "country": "US",
    "elevation": 375,
    "lat": 32.6744003296,
    "lon": -82.7711029053,
    "tz": "America/New_York"
  },
  {
    "icao": "01IA",
    "iata": "",
    "name": "Stender Airport",
    "city": "Maysville",
    "state": "Iowa",
    "country": "US",
    "elevation": 725,
    "lat": 41.6610984802,
    "lon": -90.7413024902,
    "tz": "America/Chicago"
  },
  {
    "icao": "01ID",
    "iata": "",
    "name": "Lava Hot Springs Airport",
    "city": "Lava Hot Springs",
    "state": "Idaho",
    "country": "US",
    "elevation": 5268,
    "lat": 42.6082000732,
    "lon": -112.0319976807,
    "tz": "America/Boise"
  },
  {
    "icao": "01II",
    "iata": "",
    "name": "Myers Field",
    "city": "Lizton",
    "state": "Indiana",
    "country": "US",
    "elevation": 950,
    "lat": 39.8849983215,
    "lon": -86.5066986084,
    "tz": "America/Indiana/Indianapolis"
  },
  {
    "icao": "01IS",
    "iata": "",
    "name": "William E. Koenig Airport",
    "city": "Dow",
    "state": "Illinois",
    "country": "US",
    "elevation": 670,
    "lat": 39.0162010193,
    "lon": -90.3181991577,
    "tz": "America/Chicago"
  },
  {
    "icao": "01KS",
    "iata": "",
    "name": "Flying N Ranch Airport",
    "city": "Lost Springs",
    "state": "Kansas",
    "country": "US",
    "elevation": 1485,
    "lat": 38.540599823,
    "lon": -97.0033035278,
    "tz": "America/Chicago"
  },
  {
    "icao": "01LA",
    "iata": "",
    "name": "Barham Airport",
    "city": "Oak Ridge",
    "state": "Louisiana",
    "country": "US",
    "elevation": 90,
    "lat": 32.638999939,
    "lon": -91.7736968994,
    "tz": "America/Chicago"
  },
  {
    "icao": "01LL",
    "iata": "",
    "name": "Schumaier Restricted Landing Area",
    "city": "Pinckneyville",
    "state": "Illinois",
    "country": "US",
    "elevation": 555,
    "lat": 38.1258010864,
    "lon": -89.4638977051,
    "tz": "America/Chicago"
  },
  {
    "icao": "01LS",
    "iata": "",
    "name": "Country Breeze Airport",
    "city": "Slaughter",
    "state": "Louisiana",
    "country": "US",
    "elevation": 125,
    "lat": 30.7059993744,
    "lon": -91.0774002075,
    "tz": "America/Chicago"
  },
  {
    "icao": "01MT",
    "iata": "",
    "name": "Crystal Lakes Resort Airport",
    "city": "Fortine",
    "state": "Montana",
    "country": "US",
    "elevation": 3141,
    "lat": 48.789100647,
    "lon": -114.8799972534,
    "tz": "America/Denver"
  },
  {
    "icao": "01NC",
    "iata": "",
    "name": "Topsail Airpark",
    "city": "Holly Ridge",
    "state": "North Carolina",
    "country": "US",
    "elevation": 65,
    "lat": 34.4752998352,
    "lon": -77.5813980103,
    "tz": "America/New_York"
  },
  {
    "icao": "01NE",
    "iata": "",
    "name": "Detour Airport",
    "city": "Wellfleet",
    "state": "Nebraska",
    "country": "US",
    "elevation": 3000,
    "lat": 40.8436012268,
    "lon": -100.6529998779,
    "tz": "America/Chicago"
  },
  {
    "icao": "01NH",
    "iata": "",
    "name": "Moore Airfield",
    "city": "Enfield",
    "state": "New Hampshire",
    "country": "US",
    "elevation": 835,
    "lat": 43.6445007324,
    "lon": -72.0869979858,
    "tz": "America/New_York"
  },
  {
    "icao": "01NM",
    "iata": "",
    "name": "Champion Ranch Airport",
    "city": "Artesia",
    "state": "New Mexico",
    "country": "US",
    "elevation": 3630,
    "lat": 33.008611,
    "lon": -104.540278,
    "tz": "America/Denver"
  },
  {
    "icao": "01NV",
    "iata": "",
    "name": "Lantana Ranch Airport",
    "city": "Yerington",
    "state": "Nevada",
    "country": "US",
    "elevation": 4600,
    "lat": 38.7639007568,
    "lon": -119.0270004272,
    "tz": "America/Los_Angeles"
  },
  {
    "icao": "01OK",
    "iata": "",
    "name": "Lawrence Airport",
    "city": "Eakly",
    "state": "Oklahoma",
    "country": "US",
    "elevation": 1525,
    "lat": 35.2944984436,
    "lon": -98.6364974976,
    "tz": "America/Chicago"
  },
  {
    "icao": "01OR",
    "iata": "",
    "name": "Red & White Flying Service Airport",
    "city": "Silver Lake",
    "state": "Oregon",
    "country": "US",
    "elevation": 4346,
    "lat": 43.1193008423,
    "lon": -121.0449981689,
    "tz": "America/Los_Angeles"
  },
  {
    "icao": "01PN",
    "iata": "",
    "name": "Bierly(Personal Use) Airport",
    "city": "Bellefonte",
    "state": "Pennsylvania",
    "country": "US",
    "elevation": 960,
    "lat": 40.9305992126,
    "lon": -77.738899231,
    "tz": "America/New_York"
  },
  {
    "icao": "01PS",
    "iata": "",
    "name": "Nort's Resort Airport",
    "city": "Meshoppen",
    "state": "Pennsylvania",
    "country": "US",
    "elevation": 1040,
    "lat": 41.5959014893,
    "lon": -76.0296020508,
    "tz": "America/New_York"
  },
  {
    "icao": "01SC",
    "iata": "",
    "name": "York Airport",
    "city": "York",
    "state": "South Carolina",
    "country": "US",
    "elevation": 779,
    "lat": 35.0321006775,
    "lon": -81.2527999878,
    "tz": "America/New_York"
  },
  {
    "icao": "01TE",
    "iata": "",
    "name": "Smith Field",
    "city": "Forney",
    "state": "Texas",
    "country": "US",
    "elevation": 505,
    "lat": 32.7375984192,
    "lon": -96.4280014038,
    "tz": "America/Chicago"
  },
  {
    "icao": "01TN",
    "iata": "",
    "name": "Colonial Air Park",
    "city": "Collierville",
    "state": "Tennessee",
    "country": "US",
    "elevation": 370,
    "lat": 34.9958992004,
    "lon": -89.7305984497,
    "tz": "America/Chicago"
  },
  {
    "icao": "01TX",
    "iata": "",
    "name": "Mims Farm Ultralightport",
    "city": "Waxahachie",
    "state": "Texas",
    "country": "US",
    "elevation": 610,
    "lat": 32.3875999451,
    "lon": -96.8775024414,
    "tz": "America/Chicago"
  },
  {
    "icao": "01UT",
    "iata": "",
    "name": "La Sal Junction Airport",
    "city": "La Sal",
    "state": "Utah",
    "country": "US",
    "elevation": 6000,
    "lat": 38.3083000183,
    "lon": -109.3960037231,
    "tz": "America/Denver"
  },
  {
    "icao": "01VA",
    "iata": "",
    "name": "Pickles Airport",
    "city": "Berryville",
    "state": "Virginia",
    "country": "US",
    "elevation": 500,
    "lat": 39.125,
    "lon": -77.9250030518,
    "tz": "America/New_York"
  },
  {
    "icao": "01WI",
    "iata": "",
    "name": "Prehn Cranberry Company Airport",
    "city": "Tomah",
    "state": "Wisconsin",
    "country": "US",
    "elevation": 930,
    "lat": 44.0099983215,
    "lon": -90.3891983032,
    "tz": "America/Chicago"
  },
  {
    "icao": "01WY",
    "iata": "",
    "name": "Keyhole Airport",
    "city": "Moorcroft",
    "state": "Wyoming",
    "country": "US",
    "elevation": 4250,
    "lat": 44.3471984863,
    "lon": -104.8109970093,
    "tz": "America/Denver"
  },
  {
    "icao": "02AK",
    "iata": "",
    "name": "Rustic Wilderness Airport",
    "city": "Willow",
    "state": "Alaska",
    "country": "US",
    "elevation": 190,
    "lat": 61.8768997192,
    "lon": -150.0980072021,
    "tz": "America/Anchorage"
  },
  {
    "icao": "02AL",
    "iata": "",
    "name": "Bass Field",
    "city": "Foley",
    "state": "Alabama",
    "country": "US",
    "elevation": 61,
    "lat": 30.3715000153,
    "lon": -87.7643966675,
    "tz": "America/Chicago"
  },
  {
    "icao": "02AR",
    "iata": "",
    "name": "Three Rivers Airport",
    "city": "Little Rock",
    "state": "Arkansas",
    "country": "US",
    "elevation": 264,
    "lat": 34.8224449158,
    "lon": -92.4444198608,
    "tz": "America/Chicago"
  },
  {
    "icao": "02AZ",
    "iata": "",
    "name": "Winchester Farm Airstrip",
    "city": "Willcox",
    "state": "Arizona",
    "country": "US",
    "elevation": 4200,
    "lat": 32.3763999939,
    "lon": -109.93699646,
    "tz": "America/Phoenix"
  },
  {
    "icao": "02CD",
    "iata": "",
    "name": "Shannon Field",
    "city": "Clarksdale",
    "state": "Mississippi",
    "country": "US",
    "elevation": 165,
    "lat": 34.1296005249,
    "lon": -90.5240020752,
    "tz": "America/Chicago"
  },
  {
    "icao": "02CL",
    "iata": "",
    "name": "Conover Air Lodge Airport",
    "city": "Frazier Park",
    "state": "California",
    "country": "US",
    "elevation": 5160,
    "lat": 34.761100769,
    "lon": -119.0589981079,
    "tz": "America/Los_Angeles"
  },
  {
    "icao": "02CO",
    "iata": "",
    "name": "Mc Cullough Airport",
    "city": "Monte Vista",
    "state": "Colorado",
    "country": "US",
    "elevation": 7615,
    "lat": 37.6432991028,
    "lon": -106.04699707,
    "tz": "America/Denver"
  },
  {
    "icao": "02FA",
    "iata": "",
    "name": "Osborn Airfield",
    "city": "Groveland",
    "state": "Florida",
    "country": "US",
    "elevation": 121,
    "lat": 28.5266990662,
    "lon": -81.8748016357,
    "tz": "America/New_York"
  },
  {
    "icao": "02FL",
    "iata": "",
    "name": "Cuchens Airport",
    "city": "Defuniak Springs",
    "state": "Florida",
    "country": "US",
    "elevation": 215,
    "lat": 30.642778,
    "lon": -86.123889,
    "tz": "America/Chicago"
  },
  {
    "icao": "02GA",
    "iata": "",
    "name": "Doug Bolton Field",
    "city": "Commerce",
    "state": "Georgia",
    "country": "US",
    "elevation": 884,
    "lat": 34.2025985718,
    "lon": -83.4290008545,
    "tz": "America/New_York"
  },
  {
    "icao": "02GE",
    "iata": "",
    "name": "Etowah Fields Airport",
    "city": "Euharlee",
    "state": "Georgia",
    "country": "US",
    "elevation": 710,
    "lat": 34.1753005981,
    "lon": -84.9244003296,
    "tz": "America/New_York"
  },
  {
    "icao": "02ID",
    "iata": "",
    "name": "Morgan Ranch Airport",
    "city": "Cascade",
    "state": "Idaho",
    "country": "US",
    "elevation": 5634,
    "lat": 44.5555000305,
    "lon": -115.3050003052,
    "tz": "America/Boise"
  },
  {
    "icao": "02II",
    "iata": "",
    "name": "King Ultralightport",
    "city": "Westfield",
    "state": "Indiana",
    "country": "US",
    "elevation": 925,
    "lat": 40.0623016357,
    "lon": -86.2105026245,
    "tz": "America/Indiana/Indianapolis"
  },
  {
    "icao": "02IN",
    "iata": "",
    "name": "Diamond P. Field",
    "city": "Muncie",
    "state": "Indiana",
    "country": "US",
    "elevation": 904,
    "lat": 40.2089004517,
    "lon": -85.540802002,
    "tz": "America/Indiana/Indianapolis"
  },
  {
    "icao": "02KS",
    "iata": "",
    "name": "Jmj Landing Airport",
    "city": "St Marys",
    "state": "Kansas",
    "country": "US",
    "elevation": 1170,
    "lat": 39.2221984863,
    "lon": -96.0552978516,
    "tz": "America/Chicago"
  },
  {
    "icao": "02ME",
    "iata": "",
    "name": "Old Acton Airfield",
    "city": "Acton",
    "state": "Maine",
    "country": "US",
    "elevation": 700,
    "lat": 43.5373001099,
    "lon": -70.929397583,
    "tz": "America/New_York"
  },
  {
    "icao": "02MI",
    "iata": "",
    "name": "Fairplains Airpark",
    "city": "Greenville",
    "state": "Michigan",
    "country": "US",
    "elevation": 850,
    "lat": 43.1571006775,
    "lon": -85.1484985352,
    "tz": "America/Detroit"
  },
  {
    "icao": "02MN",
    "iata": "",
    "name": "Greenbush Municipal Airport",
    "city": "Greenbush",
    "state": "Minnesota",
    "country": "US",
    "elevation": 1070,
    "lat": 48.6833000183,
    "lon": -96.1920013428,
    "tz": "America/Chicago"
  },
  {
    "icao": "02MO",
    "iata": "",
    "name": "Troy Airpark",
    "city": "Troy",
    "state": "Missouri",
    "country": "US",
    "elevation": 650,
    "lat": 39.0499992371,
    "lon": -91.0335006714,
    "tz": "America/Chicago"
  },
  {
    "icao": "02MS",
    "iata": "",
    "name": "Watts Field",
    "city": "Rochdale",
    "state": "Mississippi",
    "country": "US",
    "elevation": 153,
    "lat": 34.1001014709,
    "lon": -90.8468017578,
    "tz": "America/Chicago"
  },
  {
    "icao": "02MT",
    "iata": "",
    "name": "Barrett Field",
    "city": "Cascade",
    "state": "Montana",
    "country": "US",
    "elevation": 3350,
    "lat": 47.2374000549,
    "lon": -111.7419967651,
    "tz": "America/Denver"
  },
  {
    "icao": "02MU",
    "iata": "",
    "name": "Timber Line Airpark",
    "city": "Cassville",
    "state": "Missouri",
    "country": "US",
    "elevation": 1550,
    "lat": 36.6542015076,
    "lon": -93.7974014282,
    "tz": "America/Chicago"
  },
  {
    "icao": "02NE",
    "iata": "",
    "name": "Benes Service Airport",
    "city": "Valparaiso",
    "state": "Nebraska",
    "country": "US",
    "elevation": 1550,
    "lat": 41.0745010376,
    "lon": -96.9045028687,
    "tz": "America/Chicago"
  },
  {
    "icao": "02NV",
    "iata": "",
    "name": "Paiute Meadows Airport",
    "city": "Winnemucca",
    "state": "Nevada",
    "country": "US",
    "elevation": 4443,
    "lat": 41.3032989502,
    "lon": -118.5979995728,
    "tz": "America/Los_Angeles"
  },
  {
    "icao": "02OH",
    "iata": "",
    "name": "Zimmerman Airport",
    "city": "Fremont",
    "state": "Ohio",
    "country": "US",
    "elevation": 614,
    "lat": 41.3763999939,
    "lon": -83.0832977295,
    "tz": "America/New_York"
  },
  {
    "icao": "02OI",
    "iata": "",
    "name": "Murtha Airport",
    "city": "Conneaut",
    "state": "Ohio",
    "country": "US",
    "elevation": 950,
    "lat": 41.8019981384,
    "lon": -80.5653991699,
    "tz": "America/New_York"
  },
  {
    "icao": "02OR",
    "iata": "",
    "name": "Rowena Dell Airport",
    "city": "The Dalles",
    "state": "Oregon",
    "country": "US",
    "elevation": 705,
    "lat": 45.6814994812,
    "lon": -121.3160018921,
    "tz": "America/Los_Angeles"
  },
  {
    "icao": "02PR",
    "iata": "",
    "name": "Cuylers Airport",
    "city": "Vega Baja",
    "state": "Vega Baja",
    "country": "PR",
    "elevation": 15,
    "lat": 18.4533004761,
    "lon": -66.366897583,
    "tz": "America/Puerto_Rico"
  },
  {
    "icao": "02PS",
    "iata": "",
    "name": "Hughes Ultralightport",
    "city": "Tioga",
    "state": "Pennsylvania",
    "country": "US",
    "elevation": 1700,
    "lat": 41.9006004333,
    "lon": -77.2303009033,
    "tz": "America/New_York"
  },
  {
    "icao": "02SC",
    "iata": "",
    "name": "Harpers Airport",
    "city": "Estill",
    "state": "South Carolina",
    "country": "US",
    "elevation": 111,
    "lat": 32.7584991455,
    "lon": -81.2248001099,
    "tz": "America/New_York"
  },
  {
    "icao": "02TN",
    "iata": "",
    "name": "Ellis Field",
    "city": "Murfreesboro",
    "state": "Tennessee",
    "country": "US",
    "elevation": 840,
    "lat": 35.7806015015,
    "lon": -86.584197998,
    "tz": "America/Chicago"
  },
  {
    "icao": "02TX",
    "iata": "",
    "name": "The Palms At Kitty Hawk Airport",
    "city": "New Home",
    "state": "Texas",
    "country": "US",
    "elevation": 3235,
    "lat": 33.3704032898,
    "lon": -101.92288208,
    "tz": "America/Chicago"
  },
  {
    "icao": "02UT",
    "iata": "",
    "name": "Lucin Airport",
    "city": "Lucin",
    "state": "Utah",
    "country": "US",
    "elevation": 4412,
    "lat": 41.3662986755,
    "lon": -113.8430023193,
    "tz": "America/Denver"
  },
  {
    "icao": "02VA",
    "iata": "",
    "name": "The Greenhouse Airport",
    "city": "Culpeper",
    "state": "Virginia",
    "country": "US",
    "elevation": 320,
    "lat": 38.4356994629,
    "lon": -77.8572006226,
    "tz": "America/New_York"
  },
  {
    "icao": "02WA",
    "iata": "",
    "name": "Cawleys South Prairie Airport",
    "city": "South Prairie",
    "state": "Washington",
    "country": "US",
    "elevation": 690,
    "lat": 47.1523017883,
    "lon": -122.09400177,
    "tz": "America/Los_Angeles"
  },
  {
    "icao": "02WI",
    "iata": "",
    "name": "Beer Airport",
    "city": "Hudson",
    "state": "Wisconsin",
    "country": "US",
    "elevation": 920,
    "lat": 45.0318984985,
    "lon": -92.6557998657,
    "tz": "America/Chicago"
  },
  {
    "icao": "02WN",
    "iata": "",
    "name": "Fowler Field",
    "city": "Tonasket",
    "state": "Washington",
    "country": "US",
    "elevation": 2150,
    "lat": 48.7458000183,
    "lon": -119.3190002441,
    "tz": "America/Los_Angeles"
  },
  {
    "icao": "02XS",
    "iata": "",
    "name": "Seidel Ranch Airport",
    "city": "Elroy",
    "state": "Texas",
    "country": "US",
    "elevation": 510,
    "lat": 30.1476993561,
    "lon": -97.6628036499,
    "tz": "America/Chicago"
  },
  {
    "icao": "03AZ",
    "iata": "",
    "name": "Thompson International Aviation Airport",
    "city": "Hereford",
    "state": "Arizona",
    "country": "US",
    "elevation": 4275,
    "lat": 31.4333992004,
    "lon": -110.0839996338,
    "tz": "America/Phoenix"
  },
  {
    "icao": "03CO",
    "iata": "",
    "name": "Kugel-Strong Airport",
    "city": "Platteville",
    "state": "Colorado",
    "country": "US",
    "elevation": 4950,
    "lat": 40.2125015259,
    "lon": -104.744003296,
    "tz": "America/Denver"
  },
  {
    "icao": "03FA",
    "iata": "",
    "name": "Lake Persimmon Airstrip",
    "city": "Lake Placid",
    "state": "Florida",
    "country": "US",
    "elevation": 70,
    "lat": 27.353099823,
    "lon": -81.4080963135,
    "tz": "America/New_York"
  },
  {
    "icao": "03FD",
    "iata": "",
    "name": "Tharpe Airport",
    "city": "Bonifay",
    "state": "Florida",
    "country": "US",
    "elevation": 115,
    "lat": 30.8288002014,
    "lon": -85.7310028076,
    "tz": "America/New_York"
  },
  {
    "icao": "03IA",
    "iata": "",
    "name": "East Field",
    "city": "Montezuma",
    "state": "Iowa",
    "country": "US",
    "elevation": 954,
    "lat": 41.5819015503,
    "lon": -92.4613037109,
    "tz": "America/Chicago"
  },
  {
    "icao": "03ID",
    "iata": "",
    "name": "Flying Y Ranch Airport",
    "city": "Council",
    "state": "Idaho",
    "country": "US",
    "elevation": 3180,
    "lat": 44.7943000793,
    "lon": -116.5329971313,
    "tz": "America/Boise"
  },
  {
    "icao": "03II",
    "iata": "",
    "name": "Davis Field Ultralightport",
    "city": "Mount Vernon",
    "state": "Indiana",
    "country": "US",
    "elevation": 465,
    "lat": 37.9620018005,
    "lon": -87.7789001465,
    "tz": "America/Chicago"
  },
  {
    "icao": "03IL",
    "iata": "",
    "name": "Wix Airport",
    "city": "Monee",
    "state": "Illinois",
    "country": "US",
    "elevation": 750,
    "lat": 41.4023017883,
    "lon": -87.8167037964,
    "tz": "America/Chicago"
  },
  {
    "icao": "03IN",
    "iata": "",
    "name": "Heinzman Airport",
    "city": "Arcadia",
    "state": "Indiana",
    "country": "US",
    "elevation": 850,
    "lat": 40.1800003052,
    "lon": -86.0124969482,
    "tz": "America/Indiana/Indianapolis"
  },
  {
    "icao": "03KY",
    "iata": "",
    "name": "Flying H Farms Airport",
    "city": "Henderson",
    "state": "Kentucky",
    "country": "US",
    "elevation": 385,
    "lat": 37.7916984558,
    "lon": -87.5413970947,
    "tz": "America/Chicago"
  },
  {
    "icao": "03MA",
    "iata": "",
    "name": "Hadley Airport",
    "city": "Hadley",
    "state": "Massachusetts",
    "country": "US",
    "elevation": 150,
    "lat": 42.3931007385,
    "lon": -72.5520019531,
    "tz": "America/New_York"
  },
  {
    "icao": "03ME",
    "iata": "",
    "name": "Maple Ridge Airport",
    "city": "Harrison",
    "state": "Maine",
    "country": "US",
    "elevation": 556,
    "lat": 44.0842018127,
    "lon": -70.6272964478,
    "tz": "America/New_York"
  },
  {
    "icao": "03MN",
    "iata": "",
    "name": "Nauerth Land Ranch Airport",
    "city": "Lakefield",
    "state": "Minnesota",
    "country": "US",
    "elevation": 1435,
    "lat": 43.6251983643,
    "lon": -95.2247009277,
    "tz": "America/Chicago"
  },
  {
    "icao": "03MO",
    "iata": "",
    "name": "Cahoochie Airport",
    "city": "Urbana",
    "state": "Missouri",
    "country": "US",
    "elevation": 1010,
    "lat": 37.8844985962,
    "lon": -93.1315994263,
    "tz": "America/Chicago"
  },
  {
    "icao": "03MT",
    "iata": "",
    "name": "Cascade Airport",
    "city": "Cascade",
    "state": "Montana",
    "country": "US",
    "elevation": 3580,
    "lat": 47.2708015442,
    "lon": -111.7220001221,
    "tz": "America/Denver"
  },
  {
    "icao": "03MU",
    "iata": "",
    "name": "Mc Donnell Airport",
    "city": "Archie",
    "state": "Missouri",
    "country": "US",
    "elevation": 874,
    "lat": 38.4925003052,
    "lon": -94.4124984741,
    "tz": "America/Chicago"
  },
  {
    "icao": "03NC",
    "iata": "",
    "name": "Pilots Ridge Airport",
    "city": "Carolina Beach",
    "state": "North Carolina",
    "country": "US",
    "elevation": 35,
    "lat": 34.1043014526,
    "lon": -77.9041976929,
    "tz": "America/New_York"
  },
  {
    "icao": "03ND",
    "iata": "",
    "name": "Olafson Brothers Airport",
    "city": "Edinburg",
    "state": "North Dakota",
    "country": "US",
    "elevation": 1045,
    "lat": 48.6263999939,
    "lon": -97.8290023804,
    "tz": "America/Chicago"
  },
  {
    "icao": "03NE",
    "iata": "",
    "name": "Hyde Ranch Airport",
    "city": "Comstock",
    "state": "Nebraska",
    "country": "US",
    "elevation": 2430,
    "lat": 41.5463981628,
    "lon": -99.331199646,
    "tz": "America/Chicago"
  },
  {
    "icao": "03NV",
    "iata": "",
    "name": "Llama Ranch Airport",
    "city": "Ruby Valley",
    "state": "Nevada",
    "country": "US",
    "elevation": 6120,
    "lat": 40.584400177,
    "lon": -115.297996521,
    "tz": "America/Los_Angeles"
  },
  {
    "icao": "03NY",
    "iata": "",
    "name": "Talmage Field",
    "city": "Riverhead",
    "state": "New York",
    "country": "US",
    "elevation": 95,
    "lat": 40.9584007263,
    "lon": -72.716796875,
    "tz": "America/New_York"
  },
  {
    "icao": "03OH",
    "iata": "",
    "name": "Gibbs Field",
    "city": "Fremont",
    "state": "Ohio",
    "country": "US",
    "elevation": 580,
    "lat": 41.4183998108,
    "lon": -83.0174026489,
    "tz": "America/New_York"
  },
  {
    "icao": "03OK",
    "iata": "",
    "name": "Sahoma Lake Airport",
    "city": "Sapulpa",
    "state": "Oklahoma",
    "country": "US",
    "elevation": 890,
    "lat": 36.0411987305,
    "lon": -96.1613998413,
    "tz": "America/Chicago"
  },
  {
    "icao": "03OR",
    "iata": "",
    "name": "Powwatka Ridge Airport",
    "city": "Troy",
    "state": "Oregon",
    "country": "US",
    "elevation": 3340,
    "lat": 45.8554000854,
    "lon": -117.4840011597,
    "tz": "America/Los_Angeles"
  },
  {
    "icao": "03PS",
    "iata": "",
    "name": "Ziggy's Field",
    "city": "Bellefonte",
    "state": "Pennsylvania",
    "country": "US",
    "elevation": 1050,
    "lat": 40.8499984741,
    "lon": -77.9056015015,
    "tz": "America/New_York"
  },
  {
    "icao": "03TA",
    "iata": "",
    "name": "Gay Hill Farm Airport",
    "city": "Gay Hill",
    "state": "Texas",
    "country": "US",
    "elevation": 505,
    "lat": 30.2626991272,
    "lon": -96.5001983643,
    "tz": "America/Chicago"
  },
  {
    "icao": "03TE",
    "iata": "",
    "name": "Barronena Ranch Airport",
    "city": "Hebbronville",
    "state": "Texas",
    "country": "US",
    "elevation": 600,
    "lat": 27.4911003113,
    "lon": -98.6695022583,
    "tz": "America/Chicago"
  },
  {
    "icao": "03UT",
    "iata": "",
    "name": "A Z Minerals Corporation Airport",
    "city": "Mexican Hat",
    "state": "Utah",
    "country": "US",
    "elevation": 5315,
    "lat": 37.1208000183,
    "lon": -109.986000061,
    "tz": "America/Denver"
  },
  {
    "icao": "03WA",
    "iata": "",
    "name": "Spangle Field",
    "city": "Spangle",
    "state": "Washington",
    "country": "US",
    "elevation": 2440,
    "lat": 47.4081993103,
    "lon": -117.3720016479,
    "tz": "America/Los_Angeles"
  },
  {
    "icao": "03WI",
    "iata": "",
    "name": "Zink Airport",
    "city": "Berlin",
    "state": "Wisconsin",
    "country": "US",
    "elevation": 880,
    "lat": 44.0275001526,
    "lon": -88.880897522,
    "tz": "America/Chicago"
  },
  {
    "icao": "03WN",
    "iata": "",
    "name": "Aerostone Ranch Airport",
    "city": "Goldendale",
    "state": "Washington",
    "country": "US",
    "elevation": 2320,
    "lat": 45.875,
    "lon": -120.6699981689,
    "tz": "America/Los_Angeles"
  },
  {
    "icao": "03XS",
    "iata": "",
    "name": "Creekside Airport",
    "city": "Mertzon",
    "state": "Texas",
    "country": "US",
    "elevation": 2100,
    "lat": 31.3180999756,
    "lon": -100.7539978027,
    "tz": "America/Chicago"
  },
  {
    "icao": "04AZ",
    "iata": "",
    "name": "Chinle Airport",
    "city": "Chinle",
    "state": "Arizona",
    "country": "US",
    "elevation": 5515,
    "lat": 36.1542015076,
    "lon": -109.5510025024,
    "tz": "America/Denver"
  },
  {
    "icao": "04CA",
    "iata": "",
    "name": "Gray Butte Field",
    "city": "Palmdale",
    "state": "California",
    "country": "US",
    "elevation": 3020,
    "lat": 34.5638999939,
    "lon": -117.6750030518,
    "tz": "America/Los_Angeles"
  },
  {
    "icao": "04CL",
    "iata": "",
    "name": "Hunt's Sky Ranch Airport",
    "city": "Julian",
    "state": "California",
    "country": "US",
    "elevation": 2310,
    "lat": 33.0816993713,
    "lon": -116.4410018921,
    "tz": "America/Los_Angeles"
  },
  {
    "icao": "04FA",
    "iata": "",
    "name": "Richards Field",
    "city": "Homestead",
    "state": "Florida",
    "country": "US",
    "elevation": 9,
    "lat": 25.5587005615,
    "lon": -80.5150985718,
    "tz": "America/New_York"
  },
  {
    "icao": "04FL",
    "iata": "",
    "name": "Cross Creek Farms Airport",
    "city": "Ormond",
    "state": "Florida",
    "country": "US",
    "elevation": 30,
    "lat": 29.2394008636,
    "lon": -81.2220001221,
    "tz": "America/New_York"
  },
  {
    "icao": "04IA",
    "iata": "",
    "name": "Middlekoop Airport",
    "city": "Packwood",
    "state": "Iowa",
    "country": "US",
    "elevation": 801,
    "lat": 41.0882987976,
    "lon": -92.0546035767,
    "tz": "America/Chicago"
  },
  {
    "icao": "04ID",
    "iata": "",
    "name": "Lanham Field",
    "city": "Emmett",
    "state": "Idaho",
    "country": "US",
    "elevation": 2343,
    "lat": 43.8777008057,
    "lon": -116.5370025635,
    "tz": "America/Boise"
  },
  {
    "icao": "04II",
    "iata": "",
    "name": "Turkey Run Airport",
    "city": "New Haven",
    "state": "Indiana",
    "country": "US",
    "elevation": 765,
    "lat": 41.1305999756,
    "lon": -84.994102478,
    "tz": "America/Indiana/Indianapolis"
  },
  {
    "icao": "04IL",
    "iata": "",
    "name": "Schertz Aerial Service - Hudson Airport",
    "city": "Hudson",
    "state": "Illinois",
    "country": "US",
    "elevation": 755,
    "lat": 40.6375007629,
    "lon": -89.0070037842,
    "tz": "America/Chicago"
  },
  {
    "icao": "04IS",
    "iata": "",
    "name": "Van Gorder Airport",
    "city": "Mansfield",
    "state": "Illinois",
    "country": "US",
    "elevation": 728,
    "lat": 40.1786003113,
    "lon": -88.5690002441,
    "tz": "America/Chicago"
  },
  {
    "icao": "04KY",
    "iata": "",
    "name": "Natchez Trace Farm Airport",
    "city": "Hiseville",
    "state": "Kentucky",
    "country": "US",
    "elevation": 710,
    "lat": 37.1351013184,
    "lon": -85.7893981934,
    "tz": "America/Chicago"
  },
  {
    "icao": "04LL",
    "iata": "",
    "name": "Brunner Airport",
    "city": "West Dundee",
    "state": "Illinois",
    "country": "US",
    "elevation": 750,
    "lat": 42.136100769,
    "lon": -88.2875976563,
    "tz": "America/Chicago"
  },
  {
    "icao": "04ME",
    "iata": "",
    "name": "Beech Hill Airport",
    "city": "Mercer",
    "state": "Maine",
    "country": "US",
    "elevation": 625,
    "lat": 44.6666984558,
    "lon": -69.8938980103,
    "tz": "America/New_York"
  },
  {
    "icao": "04MI",
    "iata": "",
    "name": "Rapids Airway Airport",
    "city": "Eaton Rapids",
    "state": "Michigan",
    "country": "US",
    "elevation": 880,
    "lat": 42.5345001221,
    "lon": -84.6283035278,
    "tz": "America/Detroit"
  },
  {
    "icao": "04MN",
    "iata": "",
    "name": "Helblad Airport",
    "city": "Kelliher",
    "state": "Minnesota",
    "country": "US",
    "elevation": 1195,
    "lat": 47.9858016968,
    "lon": -94.6868972778,
    "tz": "America/Chicago"
  },
  {
    "icao": "04MO",
    "iata": "",
    "name": "Airpark Private Airport",
    "city": "Vandalia",
    "state": "Missouri",
    "country": "US",
    "elevation": 767,
    "lat": 39.3012008667,
    "lon": -91.451499939,
    "tz": "America/Chicago"
  },
  {
    "icao": "04MS",
    "iata": "",
    "name": "Nick's Flying Service Inc Airport",
    "city": "Rolling Fork",
    "state": "Mississippi",
    "country": "US",
    "elevation": 100,
    "lat": 32.9396018982,
    "lon": -90.8373031616,
    "tz": "America/Chicago"
  },
  {
    "icao": "04MT",
    "iata": "",
    "name": "Pluhar Airport",
    "city": "Cohagen",
    "state": "Montana",
    "country": "US",
    "elevation": 2715,
    "lat": 47.1374977778,
    "lon": -106.488095,
    "tz": "America/Denver"
  },
  {
    "icao": "04NE",
    "iata": "",
    "name": "Mc Connell Field Airport",
    "city": "Sarben",
    "state": "Nebraska",
    "country": "US",
    "elevation": 3035,
    "lat": 41.1599998474,
    "lon": -101.299003601,
    "tz": "America/Denver"
  },
  {
    "icao": "04NJ",
    "iata": "",
    "name": "Emmanuel Airport",
    "city": "Elmer",
    "state": "New Jersey",
    "country": "US",
    "elevation": 155,
    "lat": 39.5968017578,
    "lon": -75.2334976196,
    "tz": "America/New_York"
  },
  {
    "icao": "04NV",
    "iata": "",
    "name": "Kingston Ranch Airport",
    "city": "Sandy Valley",
    "state": "California",
    "country": "US",
    "elevation": 2620,
    "lat": 35.7555007935,
    "lon": -115.665000916,
    "tz": "America/Los_Angeles"
  },
  {
    "icao": "04NY",
    "iata": "",
    "name": "Klaverack Airport",
    "city": "Hudson",
    "state": "New York",
    "country": "US",
    "elevation": 250,
    "lat": 42.262298584,
    "lon": -73.6961975098,
    "tz": "America/New_York"
  },
  {
    "icao": "04OH",
    "iata": "",
    "name": "Bossow Airport",
    "city": "Garrettsville",
    "state": "Ohio",
    "country": "US",
    "elevation": 1080,
    "lat": 41.2476997375,
    "lon": -81.1007003784,
    "tz": "America/New_York"
  },
  {
    "icao": "04OR",
    "iata": "",
    "name": "Collins Landing Strip",
    "city": "Mitchell",
    "state": "Oregon",
    "country": "US",
    "elevation": 1500,
    "lat": 44.7499008179,
    "lon": -120.200996399,
    "tz": "America/Los_Angeles"
  },
  {
    "icao": "04TN",
    "iata": "",
    "name": "Hensley Airpark",
    "city": "Chuckey",
    "state": "Tennessee",
    "country": "US",
    "elevation": 1430,
    "lat": 36.1833000183,
    "lon": -82.6789016724,
    "tz": "America/New_York"
  },
  {
    "icao": "04TX",
    "iata": "",
    "name": "Pocock Airport",
    "city": "China Spring",
    "state": "Texas",
    "country": "US",
    "elevation": 565,
    "lat": 31.7322006226,
    "lon": -97.3688964844,
    "tz": "America/Chicago"
  },
  {
    "icao": "04UT",
    "iata": "",
    "name": "Navajo Mountain Airport",
    "city": "Navajo Mountain Trdng Post",
    "state": "Utah",
    "country": "US",
    "elevation": 6160,
    "lat": 37.0083007812,
    "lon": -110.794998169,
    "tz": "America/Denver"
  },
  {
    "icao": "04VG",
    "iata": "",
    "name": "Manquin Flight Park Ultralightport",
    "city": "Manquin",
    "state": "Virginia",
    "country": "US",
    "elevation": 50,
    "lat": 37.7144012451,
    "lon": -77.2117996216,
    "tz": "America/New_York"
  },
  {
    "icao": "04VT",
    "iata": "",
    "name": "Lightning Bolt Field Airport",
    "city": "Cabot",
    "state": "Vermont",
    "country": "US",
    "elevation": 2156,
    "lat": 44.4011001587,
    "lon": -72.2636032104,
    "tz": "America/New_York"
  },
  {
    "icao": "04WA",
    "iata": "",
    "name": "Ox Meadows Airport",
    "city": "Spokane",
    "state": "Washington",
    "country": "US",
    "elevation": 2345,
    "lat": 47.5817985535,
    "lon": -117.43699646,
    "tz": "America/Los_Angeles"
  },
  {
    "icao": "04WI",
    "iata": "",
    "name": "Dutch Gap Airstrip",
    "city": "Bristol",
    "state": "Wisconsin",
    "country": "US",
    "elevation": 760,
    "lat": 42.523399353,
    "lon": -88.0167007446,
    "tz": "America/Chicago"
  },
  {
    "icao": "04WN",
    "iata": "",
    "name": "Stillwater Creek Airport",
    "city": "Royal City",
    "state": "Washington",
    "country": "US",
    "elevation": 1510,
    "lat": 46.963889,
    "lon": -119.641667,
    "tz": "America/Los_Angeles"
  },
  {
    "icao": "05AK",
    "iata": "",
    "name": "Wasilla Creek Airpark",
    "city": "Palmer",
    "state": "Alaska",
    "country": "US",
    "elevation": 620,
    "lat": 61.66830063,
    "lon": -149.1880035,
    "tz": "America/Anchorage"
  },
  {
    "icao": "05AR",
    "iata": "",
    "name": "Ozark Skies Airpark",
    "city": "Kingston",
    "state": "Arkansas",
    "country": "US",
    "elevation": 1900,
    "lat": 36.000633,
    "lon": -93.57025,
    "tz": "America/Chicago"
  },
  {
    "icao": "05CL",
    "iata": "",
    "name": "Pope Valley Airport",
    "city": "Pope Valley",
    "state": "California",
    "country": "US",
    "elevation": 618,
    "lat": 38.6106987,
    "lon": -122.39099884,
    "tz": "America/Los_Angeles"
  },
  {
    "icao": "05CO",
    "iata": "",
    "name": "Rancho De Aereo Airport",
    "city": "Mead",
    "state": "Colorado",
    "country": "US",
    "elevation": 4978,
    "lat": 40.2149839,
    "lon": -104.9844228,
    "tz": "America/Denver"
  },
  {
    "icao": "05FA",
    "iata": "",
    "name": "Melanie's Airport",
    "city": "Florala",
    "state": "Florida",
    "country": "US",
    "elevation": 295,
    "lat": 30.9188995361,
    "lon": -86.2182998657,
    "tz": "America/Chicago"
  },
  {
    "icao": "05FL",
    "iata": "",
    "name": "Charlton Strip",
    "city": "La Belle",
    "state": "Florida",
    "country": "US",
    "elevation": 36,
    "lat": 26.5230998993,
    "lon": -81.4083023071,
    "tz": "America/New_York"
  },
  {
    "icao": "05GA",
    "iata": "",
    "name": "Raju Airport",
    "city": "Richland",
    "state": "Georgia",
    "country": "US",
    "elevation": 625,
    "lat": 32.0713996887,
    "lon": -84.7144012451,
    "tz": "America/New_York"
  },
  {
    "icao": "05IA",
    "iata": "",
    "name": "Spotts Field",
    "city": "Nora Springs",
    "state": "Iowa",
    "country": "US",
    "elevation": 1155,
    "lat": 43.1375007629,
    "lon": -93.0682983398,
    "tz": "America/Chicago"
  },
  {
    "icao": "05ID",
    "iata": "",
    "name": "Running Creek Ranch Airport",
    "city": "Grangeville",
    "state": "Idaho",
    "country": "US",
    "elevation": 2969,
    "lat": 45.914100647,
    "lon": -114.8359985352,
    "tz": "America/Los_Angeles"
  },
  {
    "icao": "05II",
    "iata": "",
    "name": "Reichhart Airport",
    "city": "New Haven",
    "state": "Indiana",
    "country": "US",
    "elevation": 795,
    "lat": 41.0287017822,
    "lon": -84.9972000122,
    "tz": "America/Indiana/Indianapolis"
  },
  {
    "icao": "05IL",
    "iata": "",
    "name": "Classic Landings Airport",
    "city": "Bonfield",
    "state": "Illinois",
    "country": "US",
    "elevation": 635,
    "lat": 41.1567001343,
    "lon": -88.0167007446,
    "tz": "America/Chicago"
  },
  {
    "icao": "05IN",
    "iata": "",
    "name": "Cooper Airport",
    "city": "Belleville",
    "state": "Indiana",
    "country": "US",
    "elevation": 860,
    "lat": 39.641998291,
    "lon": -86.5042037964,
    "tz": "America/Indiana/Indianapolis"
  },
  {
    "icao": "05IS",
    "iata": "",
    "name": "Hardy Airport",
    "city": "Mount Auburn",
    "state": "Illinois",
    "country": "US",
    "elevation": 605,
    "lat": 39.7258987427,
    "lon": -89.263999939,
    "tz": "America/Chicago"
  },
  {
    "icao": "05KS",
    "iata": "",
    "name": "Darbro Field",
    "city": "Elk City",
    "state": "Kansas",
    "country": "US",
    "elevation": 945,
    "lat": 37.2662010193,
    "lon": -95.959197998,
    "tz": "America/Chicago"
  },
  {
    "icao": "05KY",
    "iata": "",
    "name": "Cartersville Airport",
    "city": "Berea",
    "state": "Kentucky",
    "country": "US",
    "elevation": 1070,
    "lat": 37.53689957,
    "lon": -84.40720367,
    "tz": "America/New_York"
  },
  {
    "icao": "05LA",
    "iata": "",
    "name": "Greg's Flying Service Airport",
    "city": "Baskin",
    "state": "Louisiana",
    "country": "US",
    "elevation": 76,
    "lat": 32.2653007507,
    "lon": -91.6977996826,
    "tz": "America/Chicago"
  },
  {
    "icao": "05LS",
    "iata": "",
    "name": "Grass Roots Airport",
    "city": "Alexandria",
    "state": "Louisiana",
    "country": "US",
    "elevation": 83,
    "lat": 31.252199173,
    "lon": -92.4757995605,
    "tz": "America/Chicago"
  },
  {
    "icao": "05MD",
    "iata": "",
    "name": "Breezecroft Airport",
    "city": "Chestertown",
    "state": "Maryland",
    "country": "US",
    "elevation": 20,
    "lat": 39.2500991821,
    "lon": -76.2052001953,
    "tz": "America/New_York"
  },
  {
    "icao": "05ME",
    "iata": "",
    "name": "Drisko Airport",
    "city": "Jonesboro",
    "state": "Maine",
    "country": "US",
    "elevation": 70,
    "lat": 44.6570014954,
    "lon": -67.5591964722,
    "tz": "America/New_York"
  },
  {
    "icao": "05NE",
    "iata": "",
    "name": "Mc Kay Airport",
    "city": "Spalding",
    "state": "Nebraska",
    "country": "US",
    "elevation": 2010,
    "lat": 41.7221984863,
    "lon": -98.3089981079,
    "tz": "America/Chicago"
  },
  {
    "icao": "05OI",
    "iata": "",
    "name": "Dorlon Airpark",
    "city": "Columbia Station",
    "state": "Ohio",
    "country": "US",
    "elevation": 830,
    "lat": 41.2883987427,
    "lon": -81.962600708,
    "tz": "America/New_York"
  },
  {
    "icao": "05OK",
    "iata": "",
    "name": "Hawk Haven Airport",
    "city": "Crescent",
    "state": "Oklahoma",
    "country": "US",
    "elevation": 1075,
    "lat": 35.8534011841,
    "lon": -97.5674972534,
    "tz": "America/Chicago"
  },
  {
    "icao": "05OR",
    "iata": "",
    "name": "Peacock Ranch Airport",
    "city": "Enterprise",
    "state": "Oregon",
    "country": "US",
    "elevation": 3500,
    "lat": 45.4415016174,
    "lon": -117.3509979248,
    "tz": "America/Los_Angeles"
  },
  {
    "icao": "05PS",
    "iata": "",
    "name": "Mills Brothers Airport",
    "city": "Burnt Cabins",
    "state": "Pennsylvania",
    "country": "US",
    "elevation": 1210,
    "lat": 40.1427993774,
    "lon": -77.8619003296,
    "tz": "America/New_York"
  },
  {
    "icao": "05TA",
    "iata": "",
    "name": "Brandes Air Field",
    "city": "Sealy",
    "state": "Texas",
    "country": "US",
    "elevation": 276,
    "lat": 29.8090991974,
    "lon": -96.2650985718,
    "tz": "America/Chicago"
  },
  {
    "icao": "05TE",
    "iata": "",
    "name": "Hilde-Griff Field",
    "city": "Georgetown",
    "state": "Texas",
    "country": "US",
    "elevation": 950,
    "lat": 30.7220993042,
    "lon": -97.7913970947,
    "tz": "America/Chicago"
  },
  {
    "icao": "05TS",
    "iata": "",
    "name": "Dew Drop Airport",
    "city": "Justin",
    "state": "Texas",
    "country": "US",
    "elevation": 750,
    "lat": 33.1292991638,
    "lon": -97.3585968018,
    "tz": "America/Chicago"
  },
  {
    "icao": "05TX",
    "iata": "",
    "name": "Circle 'A' Ranch Airport",
    "city": "Blum",
    "state": "Texas",
    "country": "US",
    "elevation": 608,
    "lat": 32.1291999817,
    "lon": -97.4041976929,
    "tz": "America/Chicago"
  },
  {
    "icao": "05UT",
    "iata": "",
    "name": "Oljato Airport",
    "city": "Oljato",
    "state": "Utah",
    "country": "US",
    "elevation": 4838,
    "lat": 37.0332984924,
    "lon": -110.3170013428,
    "tz": "America/Denver"
  },
  {
    "icao": "05VA",
    "iata": "",
    "name": "Providence Airport",
    "city": "Farmville",
    "state": "Virginia",
    "country": "US",
    "elevation": 445,
    "lat": 37.2242012024,
    "lon": -78.4186019897,
    "tz": "America/New_York"
  },
  {
    "icao": "05WI",
    "iata": "",
    "name": "Ames Private Airport",
    "city": "Darien",
    "state": "Wisconsin",
    "country": "US",
    "elevation": 958,
    "lat": 42.6511001587,
    "lon": -88.7459030151,
    "tz": "America/Chicago"
  },
  {
    "icao": "05WN",
    "iata": "",
    "name": "Flat Creek Field",
    "city": "Kettle Falls",
    "state": "Washington",
    "country": "US",
    "elevation": 1570,
    "lat": 48.702222,
    "lon": -118.0475,
    "tz": "America/Los_Angeles"
  },
  {
    "icao": "05XS",
    "iata": "",
    "name": "Johnson Memorial Airport",
    "city": "Wilmot",
    "state": "Arkansas",
    "country": "US",
    "elevation": 105,
    "lat": 33.0792999268,
    "lon": -91.5431976318,
    "tz": "America/Chicago"
  },
  {
    "icao": "06AK",
    "iata": "",
    "name": "June Lake Airpark",
    "city": "Wasilla",
    "state": "Alaska",
    "country": "US",
    "elevation": 425,
    "lat": 61.627619,
    "lon": -149.575331,
    "tz": "America/Anchorage"
  },
  {
    "icao": "06AR",
    "iata": "",
    "name": "Bondair Airport",
    "city": "Higden",
    "state": "Arkansas",
    "country": "US",
    "elevation": 499,
    "lat": 35.5444984436,
    "lon": -92.1848983765,
    "tz": "America/Chicago"
  },
  {
    "icao": "06CO",
    "iata": "",
    "name": "Jecan Airport",
    "city": "Branson",
    "state": "Colorado",
    "country": "US",
    "elevation": 5100,
    "lat": 37.3875007629,
    "lon": -103.6910018921,
    "tz": "America/Denver"
  },
  {
    "icao": "06FA",
    "iata": "",
    "name": "William P Gwinn Airport",
    "city": "Jupiter",
    "state": "Florida",
    "country": "US",
    "elevation": 28,
    "lat": 26.9083995819,
    "lon": -80.3289031982,
    "tz": "America/New_York"
  },
  {
    "icao": "06FD",
    "iata": "",
    "name": "Grass Roots Airpark",
    "city": "Mascotte",
    "state": "Florida",
    "country": "US",
    "elevation": 105,
    "lat": 28.6417007446,
    "lon": -81.8850021362,
    "tz": "America/New_York"
  },
  {
    "icao": "06IA",
    "iata": "",
    "name": "Rich Field",
    "city": "Walford",
    "state": "Iowa",
    "country": "US",
    "elevation": 880,
    "lat": 41.8414001465,
    "lon": -91.8342971802,
    "tz": "America/Chicago"
  },
  {
    "icao": "06ID",
    "iata": "",
    "name": "Larkin Airport",
    "city": "Kuna",
    "state": "Idaho",
    "country": "US",
    "elevation": 2750,
    "lat": 43.4626998901,
    "lon": -116.3590011597,
    "tz": "America/Boise"
  },
  {
    "icao": "06IL",
    "iata": "",
    "name": "Humm Airport",
    "city": "Earlville",
    "state": "Illinois",
    "country": "US",
    "elevation": 708,
    "lat": 41.5994987488,
    "lon": -88.8699035645,
    "tz": "America/Chicago"
  },
  {
    "icao": "06IN",
    "iata": "",
    "name": "Ellis Fly-In Airport",
    "city": "Blackhawk",
    "state": "Indiana",
    "country": "US",
    "elevation": 575,
    "lat": 39.2827987671,
    "lon": -87.3035964966,
    "tz": "America/Indiana/Indianapolis"
  },
  {
    "icao": "06IS",
    "iata": "",
    "name": "Sinele Strip",
    "city": "Nauvoo",
    "state": "Illinois",
    "country": "US",
    "elevation": 695,
    "lat": 40.5463981628,
    "lon": -91.2742996216,
    "tz": "America/Chicago"
  },
  {
    "icao": "06MN",
    "iata": "",
    "name": "Pike Field Airport",
    "city": "Virginia",
    "state": "Minnesota",
    "country": "US",
    "elevation": 1463,
    "lat": 47.6519012451,
    "lon": -92.4167022705,
    "tz": "America/Chicago"
  },
  {
    "icao": "06MO",
    "iata": "",
    "name": "Noahs Ark Airport",
    "city": "Waldron",
    "state": "Missouri",
    "country": "US",
    "elevation": 755,
    "lat": 39.2305984497,
    "lon": -94.804397583,
    "tz": "America/Chicago"
  },
  {
    "icao": "06MT",
    "iata": "",
    "name": "Torgerson Airport",
    "city": "Ethridge",
    "state": "Montana",
    "country": "US",
    "elevation": 3541,
    "lat": 48.5583000183,
    "lon": -112.1090011597,
    "tz": "America/Denver"
  },
  {
    "icao": "06NC",
    "iata": "",
    "name": "Tailwinds Airport",
    "city": "St. Pauls",
    "state": "North Carolina",
    "country": "US",
    "elevation": 163,
    "lat": 34.8274993896,
    "lon": -78.9302978516,
    "tz": "America/New_York"
  },
  {
    "icao": "06ND",
    "iata": "",
    "name": "Fitterer's Strip",
    "city": "Glen Ullin",
    "state": "North Dakota",
    "country": "US",
    "elevation": 2180,
    "lat": 46.7489013672,
    "lon": -101.6689987183,
    "tz": "America/North_Dakota/New_Salem"
  },
  {
    "icao": "06NH",
    "iata": "",
    "name": "Cole Farm Airport",
    "city": "Kensington",
    "state": "New Hampshire",
    "country": "US",
    "elevation": 160,
    "lat": 42.9283981323,
    "lon": -70.9730987549,
    "tz": "America/New_York"
  },
  {
    "icao": "06NY",
    "iata": "",
    "name": "Murphy Field",
    "city": "Auburn",
    "state": "New York",
    "country": "US",
    "elevation": 1100,
    "lat": 42.8428001404,
    "lon": -76.4452972412,
    "tz": "America/New_York"
  },
  {
    "icao": "06OH",
    "iata": "",
    "name": "Hal Joy Airfield",
    "city": "Williamsfield",
    "state": "Ohio",
    "country": "US",
    "elevation": 1160,
    "lat": 41.5097999573,
    "lon": -80.5912017822,
    "tz": "America/New_York"
  },
  {
    "icao": "06OI",
    "iata": "",
    "name": "Green Acres Airport",
    "city": "New Lebanon",
    "state": "Ohio",
    "country": "US",
    "elevation": 915,
    "lat": 39.7347984314,
    "lon": -84.3822021484,
    "tz": "America/New_York"
  },
  {
    "icao": "06OR",
    "iata": "",
    "name": "Hayden Mountain Airport",
    "city": "Forest Grove",
    "state": "Oregon",
    "country": "US",
    "elevation": 850,
    "lat": 45.4650993347,
    "lon": -123.0800018311,
    "tz": "America/Los_Angeles"
  },
  {
    "icao": "06PA",
    "iata": "",
    "name": "Freefall Oz Airport",
    "city": "Ceres",
    "state": "New York",
    "country": "US",
    "elevation": 1440,
    "lat": 42.0083999634,
    "lon": -78.258102417,
    "tz": "America/New_York"
  },
  {
    "icao": "06SN",
    "iata": "",
    "name": "Beyer Farm Airport",
    "city": "Derby",
    "state": "Kansas",
    "country": "US",
    "elevation": 1340,
    "lat": 37.5839004517,
    "lon": -97.2530975342,
    "tz": "America/Chicago"
  },
  {
    "icao": "06TA",
    "iata": "",
    "name": "Glaser Field",
    "city": "Buckholts",
    "state": "Texas",
    "country": "US",
    "elevation": 480,
    "lat": 30.9085006714,
    "lon": -97.116897583,
    "tz": "America/Chicago"
  },
  {
    "icao": "06TE",
    "iata": "",
    "name": "Ainsworth Airport",
    "city": "Cleveland",
    "state": "Texas",
    "country": "US",
    "elevation": 129,
    "lat": 30.3127002716,
    "lon": -95.0269012451,
    "tz": "America/Chicago"
  },
  {
    "icao": "06TN",
    "iata": "",
    "name": "Hunter STOLport",
    "city": "Columbia",
    "state": "Tennessee",
    "country": "US",
    "elevation": 640,
    "lat": 35.6972999573,
    "lon": -86.9569015503,
    "tz": "America/Chicago"
  },
  {
    "icao": "06TS",
    "iata": "",
    "name": "Roscoe Mc Connico Airport",
    "city": "Kerens",
    "state": "Texas",
    "country": "US",
    "elevation": 350,
    "lat": 32.1207008362,
    "lon": -96.1791000366,
    "tz": "America/Chicago"
  },
  {
    "icao": "06TX",
    "iata": "",
    "name": "Diamond N Ranch Airport",
    "city": "Hockley",
    "state": "Texas",
    "country": "US",
    "elevation": 215,
    "lat": 30.0576000214,
    "lon": -95.8128967285,
    "tz": "America/Chicago"
  },
  {
    "icao": "06R",
    "iata": "",
    "name": "Grawunder Field Airport",
    "city": "Bellville",
    "state": "Texas",
    "country": "US",
    "elevation": 89,
    "lat": 29.9409722222,
    "lon": -96.24525,
    "tz": "America/Chicago"
  },
  {
    "icao": "06VA",
    "iata": "",
    "name": "Mount Horeb Field",
    "city": "Grottoes",
    "state": "Virginia",
    "country": "US",
    "elevation": 1160,
    "lat": 38.2490005493,
    "lon": -78.8553009033,
    "tz": "America/New_York"
  },
  {
    "icao": "06WI",
    "iata": "",
    "name": "Young Private Airport",
    "city": "Frederic",
    "state": "Wisconsin",
    "country": "US",
    "elevation": 1075,
    "lat": 45.6627006531,
    "lon": -92.4502029419,
    "tz": "America/Chicago"
  },
  {
    "icao": "06WN",
    "iata": "",
    "name": "Western Airpark",
    "city": "Yelm",
    "state": "Washington",
    "country": "US",
    "elevation": 394,
    "lat": 46.9249992371,
    "lon": -122.5530014038,
    "tz": "America/Los_Angeles"
  },
  {
    "icao": "06XS",
    "iata": "",
    "name": "Campbell Field",
    "city": "Aubrey",
    "state": "Texas",
    "country": "US",
    "elevation": 546,
    "lat": 33.3246994019,
    "lon": -97.0441970825,
    "tz": "America/Chicago"
  },
  {
    "icao": "07AR",
    "iata": "",
    "name": "Morrilton Airport",
    "city": "Morrilton",
    "state": "Arkansas",
    "country": "US",
    "elevation": 300,
    "lat": 35.1944999695,
    "lon": -92.800201416,
    "tz": "America/Chicago"
  },
  {
    "icao": "07CL",
    "iata": "",
    "name": "Richvale Airport",
    "city": "Richvale",
    "state": "California",
    "country": "US",
    "elevation": 100,
    "lat": 39.4976997375,
    "lon": -121.7710037231,
    "tz": "America/Los_Angeles"
  },
  {
    "icao": "07CO",
    "iata": "",
    "name": "Comanche Creek Airport",
    "city": "Kiowa",
    "state": "Colorado",
    "country": "US",
    "elevation": 6620,
    "lat": 39.2635993958,
    "lon": -104.4270019531,
    "tz": "America/Denver"
  },
  {
    "icao": "07FA",
    "iata": "",
    "name": "Ocean Reef Club Airport",
    "city": "Key Largo",
    "state": "Florida",
    "country": "US",
    "elevation": 8,
    "lat": 25.3253993988,
    "lon": -80.2748031616,
    "tz": "America/New_York"
  },
  {
    "icao": "07FD",
    "iata": "",
    "name": "Flying G Ranch STOLport",
    "city": "Lee",
    "state": "Florida",
    "country": "US",
    "elevation": 90,
    "lat": 30.4179992676,
    "lon": -83.2837982178,
    "tz": "America/New_York"
  },
  {
    "icao": "07GA",
    "iata": "",
    "name": "Alcovy Airport",
    "city": "Covington",
    "state": "Georgia",
    "country": "US",
    "elevation": 750,
    "lat": 33.6749992371,
    "lon": -83.7630996704,
    "tz": "America/New_York"
  },
  {
    "icao": "07ID",
    "iata": "",
    "name": "Interstate Airport",
    "city": "Malta",
    "state": "Idaho",
    "country": "US",
    "elevation": 4580,
    "lat": 42.2781982422,
    "lon": -113.3050003052,
    "tz": "America/Boise"
  },
  {
    "icao": "07IN",
    "iata": "",
    "name": "Gray Airport",
    "city": "Boggstown",
    "state": "Indiana",
    "country": "US",
    "elevation": 750,
    "lat": 39.5736999512,
    "lon": -85.9139022827,
    "tz": "America/Indiana/Indianapolis"
  },
  {
    "icao": "07KS",
    "iata": "",
    "name": "Heape Field",
    "city": "Augusta",
    "state": "Kansas",
    "country": "US",
    "elevation": 1321,
    "lat": 37.7341995239,
    "lon": -96.9366989136,
    "tz": "America/Chicago"
  },
  {
    "icao": "07KY",
    "iata": "",
    "name": "Blue Lick Airport",
    "city": "Louisville",
    "state": "Kentucky",
    "country": "US",
    "elevation": 532,
    "lat": 38.0806007385,
    "lon": -85.6932983398,
    "tz": "America/New_York"
  },
  {
    "icao": "07MD",
    "iata": "",
    "name": "Baugher's Orchard Airport",
    "city": "Westminster",
    "state": "Maryland",
    "country": "US",
    "elevation": 700,
    "lat": 39.6082992554,
    "lon": -77.051902771,
    "tz": "America/New_York"
  },
  {
    "icao": "07MI",
    "iata": "",
    "name": "Scott Airstrip",
    "city": "Lake",
    "state": "Michigan",
    "country": "US",
    "elevation": 1065,
    "lat": 43.864200592,
    "lon": -85.0239028931,
    "tz": "America/Detroit"
  },
  {
    "icao": "07MN",
    "iata": "",
    "name": "Dairyview Airport",
    "city": "Hadley",
    "state": "Minnesota",
    "country": "US",
    "elevation": 1680,
    "lat": 44.0550003052,
    "lon": -95.9095001221,
    "tz": "America/Chicago"
  },
  {
    "icao": "07MO",
    "iata": "",
    "name": "Lake Sexton Airport",
    "city": "Warrensburg",
    "state": "Missouri",
    "country": "US",
    "elevation": 880,
    "lat": 38.6500015259,
    "lon": -93.616897583,
    "tz": "America/Chicago"
  },
  {
    "icao": "07MT",
    "iata": "",
    "name": "Glasgow Industrial Airport",
    "city": "Glasgow",
    "state": "Montana",
    "country": "US",
    "elevation": 2762,
    "lat": 48.4211006165,
    "lon": -106.5279998779,
    "tz": "America/Denver"
  },
  {
    "icao": "07NC",
    "iata": "",
    "name": "Hawks Meadow Airport",
    "city": "Waxhaw",
    "state": "North Carolina",
    "country": "US",
    "elevation": 625,
    "lat": 34.8331985474,
    "lon": -80.7511978149,
    "tz": "America/New_York"
  },
  {
    "icao": "07OK",
    "iata": "",
    "name": "Pleasant Valley Airport",
    "city": "Snyder",
    "state": "Oklahoma",
    "country": "US",
    "elevation": 1322,
    "lat": 34.6333999634,
    "lon": -99.0336990356,
    "tz": "America/Chicago"
  },
  {
    "icao": "07OR",
    "iata": "",
    "name": "Bruce's Airport",
    "city": "Milwaukie",
    "state": "Oregon",
    "country": "US",
    "elevation": 250,
    "lat": 45.4217987061,
    "lon": -122.6200027466,
    "tz": "America/Los_Angeles"
  },
  {
    "icao": "07PN",
    "iata": "",
    "name": "Folmar Airport",
    "city": "Grassflat",
    "state": "Pennsylvania",
    "country": "US",
    "elevation": 1690,
    "lat": 40.998889,
    "lon": -78.125278,
    "tz": "America/New_York"
  },
  {
    "icao": "07SN",
    "iata": "",
    "name": "Churchill Airport",
    "city": "Phillipsburg",
    "state": "Kansas",
    "country": "US",
    "elevation": 1965,
    "lat": 39.7728004456,
    "lon": -99.3600997925,
    "tz": "America/Chicago"
  },
  {
    "icao": "07TA",
    "iata": "",
    "name": "Salaika Aviation Airport",
    "city": "Danbury",
    "state": "Texas",
    "country": "US",
    "elevation": 30,
    "lat": 29.2404994965,
    "lon": -95.3447036743,
    "tz": "America/Chicago"
  },
  {
    "icao": "07TE",
    "iata": "",
    "name": "Cuddihy Field",
    "city": "Corpus Christi",
    "state": "Texas",
    "country": "US",
    "elevation": 39,
    "lat": 27.7210998535,
    "lon": -97.512802124,
    "tz": "America/Chicago"
  },
  {
    "icao": "07TN",
    "iata": "",
    "name": "Corntassel Airport",
    "city": "Vonore",
    "state": "Tennessee",
    "country": "US",
    "elevation": 970,
    "lat": 35.5685997009,
    "lon": -84.2410964966,
    "tz": "America/New_York"
  },
  {
    "icao": "07TS",
    "iata": "",
    "name": "Cross-Country Estates Airport",
    "city": "Georgetown",
    "state": "Texas",
    "country": "US",
    "elevation": 690,
    "lat": 30.625,
    "lon": -97.5727996826,
    "tz": "America/Chicago"
  },
  {
    "icao": "07VA",
    "iata": "",
    "name": "Alpha Hotel Airport",
    "city": "Clover",
    "state": "Virginia",
    "country": "US",
    "elevation": 350,
    "lat": 36.8195991516,
    "lon": -78.7830963135,
    "tz": "America/New_York"
  },
  {
    "icao": "07VT",
    "iata": "",
    "name": "Meadow STOLport",
    "city": "Jericho",
    "state": "Vermont",
    "country": "US",
    "elevation": 801,
    "lat": 44.4472007751,
    "lon": -72.9147033691,
    "tz": "America/New_York"
  },
  {
    "icao": "07WI",
    "iata": "",
    "name": "Bartell Strip",
    "city": "Genessee Depot",
    "state": "Wisconsin",
    "country": "US",
    "elevation": 990,
    "lat": 42.9653015137,
    "lon": -88.3915023804,
    "tz": "America/Chicago"
  },
  {
    "icao": "08AK",
    "iata": "",
    "name": "Fisher Airport",
    "city": "Big Lake",
    "state": "Alaska",
    "country": "US",
    "elevation": 200,
    "lat": 61.569639,
    "lon": -149.724439,
    "tz": "America/Anchorage"
  },
  {
    "icao": "08CL",
    "iata": "",
    "name": "Kistler Ranch Airport",
    "city": "Jamestown",
    "state": "California",
    "country": "US",
    "elevation": 1025,
    "lat": 37.8596000671,
    "lon": -120.5540008545,
    "tz": "America/Los_Angeles"
  },
  {
    "icao": "08CO",
    "iata": "",
    "name": "Terra Firma Airport",
    "city": "Rush",
    "state": "Colorado",
    "country": "US",
    "elevation": 5600,
    "lat": 38.7324981689,
    "lon": -104.0410003662,
    "tz": "America/Denver"
  },
  {
    "icao": "08FA",
    "iata": "",
    "name": "Duda Airstrip",
    "city": "La Belle",
    "state": "Florida",
    "country": "US",
    "elevation": 35,
    "lat": 26.5797996521,
    "lon": -81.4837036133,
    "tz": "America/New_York"
  },
  {
    "icao": "08FD",
    "iata": "",
    "name": "Sunniland Ranch Airport",
    "city": "Okeechobee",
    "state": "Florida",
    "country": "US",
    "elevation": 65,
    "lat": 27.3631000519,
    "lon": -80.7727966309,
    "tz": "America/New_York"
  },
  {
    "icao": "08FL",
    "iata": "",
    "name": "J. H. Hendrie Farms Airport",
    "city": "Lake Placid",
    "state": "Florida",
    "country": "US",
    "elevation": 103,
    "lat": 27.0844993591,
    "lon": -81.3286972046,
    "tz": "America/New_York"
  },
  {
    "icao": "08GA",
    "iata": "",
    "name": "Sapelo Island Airport",
    "city": "Darien",
    "state": "Georgia",
    "country": "US",
    "elevation": 12,
    "lat": 31.4258003235,
    "lon": -81.2858963013,
    "tz": "America/New_York"
  },
  {
    "icao": "08ID",
    "iata": "",
    "name": "Symms Airport",
    "city": "Marsing",
    "state": "Idaho",
    "country": "US",
    "elevation": 2680,
    "lat": 43.5693016052,
    "lon": -116.7770004272,
    "tz": "America/Boise"
  },
  {
    "icao": "08IL",
    "iata": "",
    "name": "Harms Airstrip",
    "city": "Tampico",
    "state": "Illinois",
    "country": "US",
    "elevation": 643,
    "lat": 41.5769996643,
    "lon": -89.7939987183,
    "tz": "America/Chicago"
  },
  {
    "icao": "08IS",
    "iata": "",
    "name": "Hemmer RLA Restricted Landing Area",
    "city": "Du Quoin",
    "state": "Illinois",
    "country": "US",
    "elevation": 400,
    "lat": 37.9777984619,
    "lon": -89.2029037476,
    "tz": "America/Chicago"
  },
  {
    "icao": "08KS",
    "iata": "",
    "name": "Alderson Airport",
    "city": "Bennington",
    "state": "Kansas",
    "country": "US",
    "elevation": 1250,
    "lat": 39.0346984863,
    "lon": -97.5800018311,
    "tz": "America/Chicago"
  },
  {
    "icao": "08KY",
    "iata": "",
    "name": "Boss Airport",
    "city": "Burnside",
    "state": "Kentucky",
    "country": "US",
    "elevation": 820,
    "lat": 36.9725990295,
    "lon": -84.6260986328,
    "tz": "America/New_York"
  },
  {
    "icao": "08LL",
    "iata": "",
    "name": "Sauer Airport",
    "city": "Dwight",
    "state": "Illinois",
    "country": "US",
    "elevation": 665,
    "lat": 41.0752983093,
    "lon": -88.4891967773,
    "tz": "America/Chicago"
  },
  {
    "icao": "08LS",
    "iata": "",
    "name": "Aeleron Airport",
    "city": "Grand Coteau",
    "state": "Louisiana",
    "country": "US",
    "elevation": 51,
    "lat": 30.4036006927,
    "lon": -92.0235977173,
    "tz": "America/Chicago"
  },
  {
    "icao": "08MA",
    "iata": "",
    "name": "Wormid Airport",
    "city": "Southborough",
    "state": "Massachusetts",
    "country": "US",
    "elevation": 360,
    "lat": 42.2939987183,
    "lon": -71.4962005615,
    "tz": "America/New_York"
  },
  {
    "icao": "08ME",
    "iata": "",
    "name": "Lindbergh Airport",
    "city": "Avon",
    "state": "Maine",
    "country": "US",
    "elevation": 554,
    "lat": 44.814201355,
    "lon": -70.3452987671,
    "tz": "America/New_York"
  },
  {
    "icao": "08MO",
    "iata": "",
    "name": "Twin Oaks Airport",
    "city": "Jasper",
    "state": "Missouri",
    "country": "US",
    "elevation": 955,
    "lat": 37.3955993652,
    "lon": -94.2837982178,
    "tz": "America/Chicago"
  },
  {
    "icao": "08MS",
    "iata": "",
    "name": "Williams Field",
    "city": "Coldwater",
    "state": "Mississippi",
    "country": "US",
    "elevation": 345,
    "lat": 34.66220093,
    "lon": -89.86830139,
    "tz": "America/Chicago"
  },
  {
    "icao": "08MT",
    "iata": "",
    "name": "Clark Airport",
    "city": "Grassrange",
    "state": "Montana",
    "country": "US",
    "elevation": 3450,
    "lat": 47.0638999939,
    "lon": -108.8170013428,
    "tz": "America/Denver"
  },
  {
    "icao": "08NC",
    "iata": "",
    "name": "Whiteheart Farm Airport",
    "city": "Lewisville",
    "state": "North Carolina",
    "country": "US",
    "elevation": 750,
    "lat": 36.0676002502,
    "lon": -80.4655990601,
    "tz": "America/New_York"
  },
  {
    "icao": "08ND",
    "iata": "",
    "name": "Brecht Strip",
    "city": "Golden Valley",
    "state": "North Dakota",
    "country": "US",
    "elevation": 1990,
    "lat": 47.3231010437,
    "lon": -102.0979995728,
    "tz": "America/North_Dakota/Beulah"
  },
  {
    "icao": "08NE",
    "iata": "",
    "name": "Laurel Municipal Airport",
    "city": "Laurel",
    "state": "Nebraska",
    "country": "US",
    "elevation": 1467,
    "lat": 42.4317016602,
    "lon": -97.079498291,
    "tz": "America/Chicago"
  },
  {
    "icao": "08NY",
    "iata": "",
    "name": "Md1 Airport",
    "city": "Middletown",
    "state": "New York",
    "country": "US",
    "elevation": 650,
    "lat": 41.3680992126,
    "lon": -74.5055999756,
    "tz": "America/New_York"
  },
  {
    "icao": "08OH",
    "iata": "",
    "name": "Kenley Airport",
    "city": "Hartford",
    "state": "Ohio",
    "country": "US",
    "elevation": 1230,
    "lat": 41.2916984558,
    "lon": -80.5636978149,
    "tz": "America/New_York"
  },
  {
    "icao": "08OK",
    "iata": "",
    "name": "Parks Airport",
    "city": "Wilburton",
    "state": "Oklahoma",
    "country": "US",
    "elevation": 635,
    "lat": 34.9314994812,
    "lon": -95.2583007813,
    "tz": "America/Chicago"
  },
  {
    "icao": "08OR",
    "iata": "",
    "name": "Saxon Sycan Airport",
    "city": "Silver Lake",
    "state": "Oregon",
    "country": "US",
    "elevation": 4990,
    "lat": 42.8392982483,
    "lon": -121.1169967651,
    "tz": "America/Los_Angeles"
  },
  {
    "icao": "08TE",
    "iata": "",
    "name": "B. J. Mc Combs Sisterdale Airport",
    "city": "Comfort",
    "state": "Texas",
    "country": "US",
    "elevation": 1447,
    "lat": 29.9759998322,
    "lon": -98.743598938,
    "tz": "America/Chicago"
  },
  {
    "icao": "08TS",
    "iata": "",
    "name": "Puesta Del Sol Airport",
    "city": "La Gloria",
    "state": "Texas",
    "country": "US",
    "elevation": 420,
    "lat": 26.8878002167,
    "lon": -98.5072021484,
    "tz": "America/Chicago"
  },
  {
    "icao": "08TX",
    "iata": "",
    "name": "Cross Wind Airport",
    "city": "Weatherford",
    "state": "Texas",
    "country": "US",
    "elevation": 1040,
    "lat": 32.8582000732,
    "lon": -97.7474975586,
    "tz": "America/Chicago"
  },
  {
    "icao": "08VA",
    "iata": "",
    "name": "Springwood Airstrip",
    "city": "Buchanan",
    "state": "Virginia",
    "country": "US",
    "elevation": 1000,
    "lat": 37.5540008545,
    "lon": -79.7498016357,
    "tz": "America/New_York"
  },
  {
    "icao": "08XS",
    "iata": "",
    "name": "Peterson Airport",
    "city": "Old Ocean",
    "state": "Texas",
    "country": "US",
    "elevation": 45,
    "lat": 29.1081008911,
    "lon": -95.7774963379,
    "tz": "America/Chicago"
  },
  {
    "icao": "09AK",
    "iata": "",
    "name": "West Beaver Airport",
    "city": "Big Lake",
    "state": "Alaska",
    "country": "US",
    "elevation": 228,
    "lat": 61.589361,
    "lon": -149.847333,
    "tz": "America/Anchorage"
  },
  {
    "icao": "09AZ",
    "iata": "",
    "name": "Stronghold Airport",
    "city": "St David",
    "state": "Arizona",
    "country": "US",
    "elevation": 4970,
    "lat": 31.9253005981,
    "lon": -110.0380020142,
    "tz": "America/Phoenix"
  },
  {
    "icao": "09CL",
    "iata": "",
    "name": "Alta Sierra Airport",
    "city": "Grass Valley",
    "state": "California",
    "country": "US",
    "elevation": 2275,
    "lat": 39.1138000488,
    "lon": -121.0569992065,
    "tz": "America/Los_Angeles"
  },
  {
    "icao": "09CO",
    "iata": "",
    "name": "Cottonwood Field",
    "city": "Swink",
    "state": "Colorado",
    "country": "US",
    "elevation": 4180,
    "lat": 38.0555992126,
    "lon": -103.6529998779,
    "tz": "America/Denver"
  },
  {
    "icao": "09FA",
    "iata": "",
    "name": "Placid Lakes Airport",
    "city": "Lake Placid",
    "state": "Florida",
    "country": "US",
    "elevation": 130,
    "lat": 27.2455997467,
    "lon": -81.4131011963,
    "tz": "America/New_York"
  },
  {
    "icao": "09FD",
    "iata": "",
    "name": "Cheryl-Lane Landings Airport",
    "city": "Bushnell",
    "state": "Florida",
    "country": "US",
    "elevation": 71,
    "lat": 28.6711006165,
    "lon": -82.0873031616,
    "tz": "America/New_York"
  },
  {
    "icao": "09FL",
    "iata": "",
    "name": "Sunnybreeze Airport",
    "city": "Arcadia",
    "state": "Florida",
    "country": "US",
    "elevation": 60,
    "lat": 27.0555992126,
    "lon": -81.9705963135,
    "tz": "America/New_York"
  },
  {
    "icao": "09GA",
    "iata": "",
    "name": "Sunbelt Strip",
    "city": "Moultrie",
    "state": "Georgia",
    "country": "US",
    "elevation": 230,
    "lat": 31.1112995148,
    "lon": -83.68409729,
    "tz": "America/New_York"
  },
  {
    "icao": "09IA",
    "iata": "",
    "name": "Skydive Iowa Airport",
    "city": "Brooklyn",
    "state": "Iowa",
    "country": "US",
    "elevation": 820,
    "lat": 41.7458000183,
    "lon": -92.4093017578,
    "tz": "America/Chicago"
  },
  {
    "icao": "09ID",
    "iata": "",
    "name": "Taylor Ranch Landing Area Airport",
    "city": "Moscow",
    "state": "Idaho",
    "country": "US",
    "elevation": 3835,
    "lat": 45.1039009094,
    "lon": -114.8550033569,
    "tz": "America/Boise"
  },
  {
    "icao": "09II",
    "iata": "",
    "name": "Gibbons Field",
    "city": "Valeene",
    "state": "Indiana",
    "country": "US",
    "elevation": 880,
    "lat": 38.4472999573,
    "lon": -86.4449996948,
    "tz": "America/Indiana/Indianapolis"
  },
  {
    "icao": "09IN",
    "iata": "",
    "name": "Gordon Airport",
    "city": "Columbia City",
    "state": "Indiana",
    "country": "US",
    "elevation": 850,
    "lat": 41.1208992004,
    "lon": -85.4250030518,
    "tz": "America/Indiana/Indianapolis"
  },
  {
    "icao": "09KS",
    "iata": "",
    "name": "Coffman Airport",
    "city": "Wellsville",
    "state": "Kansas",
    "country": "US",
    "elevation": 970,
    "lat": 38.7070007324,
    "lon": -95.1382980347,
    "tz": "America/Chicago"
  },
  {
    "icao": "09LL",
    "iata": "",
    "name": "Pine Hill Airport",
    "city": "Capron",
    "state": "Illinois",
    "country": "US",
    "elevation": 1000,
    "lat": 42.4681015015,
    "lon": -88.7432022095,
    "tz": "America/Chicago"
  },
  {
    "icao": "09MA",
    "iata": "",
    "name": "Kallander Field",
    "city": "Southborough",
    "state": "Massachusetts",
    "country": "US",
    "elevation": 403,
    "lat": 42.3042984009,
    "lon": -71.505897522,
    "tz": "America/New_York"
  },
  {
    "icao": "09ME",
    "iata": "",
    "name": "Perrotti Skyranch Airfield",
    "city": "Berwick",
    "state": "Maine",
    "country": "US",
    "elevation": 260,
    "lat": 43.340801239,
    "lon": -70.8546981812,
    "tz": "America/New_York"
  },
  {
    "icao": "09MN",
    "iata": "",
    "name": "W Johnson Field",
    "city": "Hazel Run",
    "state": "Minnesota",
    "country": "US",
    "elevation": 1060,
    "lat": 44.7799987793,
    "lon": -95.6635971069,
    "tz": "America/Chicago"
  },
  {
    "icao": "09MO",
    "iata": "",
    "name": "Hogue Farm Airport",
    "city": "Willard",
    "state": "Missouri",
    "country": "US",
    "elevation": 1210,
    "lat": 37.3783988953,
    "lon": -93.3632965088,
    "tz": "America/Chicago"
  },
  {
    "icao": "09NC",
    "iata": "",
    "name": "William Irving Lewis Airport",
    "city": "Broadway",
    "state": "North Carolina",
    "country": "US",
    "elevation": 310,
    "lat": 35.3292999268,
    "lon": -79.0299987793,
    "tz": "America/New_York"
  },
  {
    "icao": "09NE",
    "iata": "",
    "name": "Summer Hill Farm Airport",
    "city": "Bennington",
    "state": "Nebraska",
    "country": "US",
    "elevation": 1250,
    "lat": 41.3333015442,
    "lon": -96.1936035156,
    "tz": "America/Chicago"
  },
  {
    "icao": "09OK",
    "iata": "",
    "name": "Ragtime Aerodrome",
    "city": "Collinsville",
    "state": "Oklahoma",
    "country": "US",
    "elevation": 700,
    "lat": 36.3544998169,
    "lon": -95.863899231,
    "tz": "America/Chicago"
  },
  {
    "icao": "09PA",
    "iata": "",
    "name": "Eagle Field",
    "city": "Port Matilda",
    "state": "Pennsylvania",
    "country": "US",
    "elevation": 1780,
    "lat": 40.8269996643,
    "lon": -77.9880981445,
    "tz": "America/New_York"
  },
  {
    "icao": "09TA",
    "iata": "",
    "name": "Lazy G Bar Ranch Airport",
    "city": "Decatur",
    "state": "Texas",
    "country": "US",
    "elevation": 923,
    "lat": 33.2821006775,
    "lon": -97.4970016479,
    "tz": "America/Chicago"
  },
  {
    "icao": "09TE",
    "iata": "",
    "name": "Running M Ranch Airport",
    "city": "Glen Rose",
    "state": "Texas",
    "country": "US",
    "elevation": 787,
    "lat": 32.2667999268,
    "lon": -97.8669967651,
    "tz": "America/Chicago"
  },
  {
    "icao": "09TS",
    "iata": "",
    "name": "Pitcock Rosillos Mountain Ranch Airport",
    "city": "Marathon",
    "state": "Texas",
    "country": "US",
    "elevation": 3100,
    "lat": 29.4824008942,
    "lon": -103.1650009155,
    "tz": "America/Chicago"
  },
  {
    "icao": "09TX",
    "iata": "",
    "name": "Smokey Mtn Ranch Airport",
    "city": "Sheffield",
    "state": "Texas",
    "country": "US",
    "elevation": 2522,
    "lat": 30.7390995026,
    "lon": -102.0240020752,
    "tz": "America/Chicago"
  },
  {
    "icao": "09VA",
    "iata": "",
    "name": "Alum Ridge STOLport",
    "city": "Floyd",
    "state": "Virginia",
    "country": "US",
    "elevation": 2375,
    "lat": 36.9765014648,
    "lon": -80.4938964844,
    "tz": "America/New_York"
  },
  {
    "icao": "09WI",
    "iata": "",
    "name": "Parkway Farm Strip",
    "city": "Holmen",
    "state": "Wisconsin",
    "country": "US",
    "elevation": 705,
    "lat": 44.0036010742,
    "lon": -91.3076019287,
    "tz": "America/Chicago"
  },
  {
    "icao": "0AK0",
    "iata": "",
    "name": "Scotts Airport",
    "city": "North Pole",
    "state": "Alaska",
    "country": "US",
    "elevation": 800,
    "lat": 64.3925018311,
    "lon": -146.8619995117,
    "tz": "America/Anchorage"
  },
  {
    "icao": "0AK1",
    "iata": "",
    "name": "Anderson Lake Airport",
    "city": "Wasilla",
    "state": "Alaska",
    "country": "US",
    "elevation": 463,
    "lat": 61.6169013977,
    "lon": -149.3220062256,
    "tz": "America/Anchorage"
  },
  {
    "icao": "0AK2",
    "iata": "",
    "name": "Yentna Bend Strip",
    "city": "Willow",
    "state": "Alaska",
    "country": "US",
    "elevation": 81,
    "lat": 61.725556,
    "lon": -150.678611,
    "tz": "America/Anchorage"
  },
  {
    "icao": "0AK3",
    "iata": "",
    "name": "Parker Lake Airport",
    "city": "Montana Creek",
    "state": "Alaska",
    "country": "US",
    "elevation": 250,
    "lat": 62.035900116,
    "lon": -150.4940032959,
    "tz": "America/Anchorage"
  },
  {
    "icao": "0AK5",
    "iata": "",
    "name": "Young Creek Airport",
    "city": "May Creek",
    "state": "Alaska",
    "country": "US",
    "elevation": 1580,
    "lat": 61.3564987183,
    "lon": -142.733001709,
    "tz": "America/Anchorage"
  },
  {
    "icao": "0AK6",
    "iata": "",
    "name": "Victory Airport",
    "city": "Victory Bible Camp",
    "state": "Alaska",
    "country": "US",
    "elevation": 1800,
    "lat": 61.8033981323,
    "lon": -147.9440002441,
    "tz": "America/Anchorage"
  },
  {
    "icao": "0AK7",
    "iata": "",
    "name": "Bradley Lake Hydroelectri Project Airstrip",
    "city": "Homer",
    "state": "Alaska",
    "country": "US",
    "elevation": 18,
    "lat": 59.7761001587,
    "lon": -150.9589996338,
    "tz": "America/Anchorage"
  },
  {
    "icao": "0AK9",
    "iata": "",
    "name": "Falcon Lake Strip",
    "city": "Point Mackenzie",
    "state": "Alaska",
    "country": "US",
    "elevation": 110,
    "lat": 61.3325996399,
    "lon": -150.0590057373,
    "tz": "America/Anchorage"
  },
  {
    "icao": "0AL1",
    "iata": "",
    "name": "Resort Airport",
    "city": "Foley",
    "state": "Alabama",
    "country": "US",
    "elevation": 97,
    "lat": 30.4438991547,
    "lon": -87.6568984985,
    "tz": "America/Chicago"
  },
  {
    "icao": "0AL5",
    "iata": "",
    "name": "Flomaton Airport",
    "city": "Flomaton",
    "state": "Alabama",
    "country": "US",
    "elevation": 247,
    "lat": 31.0321998596,
    "lon": -87.2527999878,
    "tz": "America/Chicago"
  },
  {
    "icao": "0AL9",
    "iata": "",
    "name": "Wilson Creek Airport",
    "city": "Florence",
    "state": "Alabama",
    "country": "US",
    "elevation": 590,
    "lat": 34.8499984741,
    "lon": -87.6324996948,
    "tz": "America/Chicago"
  },
  {
    "icao": "0AR1",
    "iata": "",
    "name": "Hooterville South Airport",
    "city": "Centerville",
    "state": "Arkansas",
    "country": "US",
    "elevation": 370,
    "lat": 35.0946998596,
    "lon": -93.202003479,
    "tz": "America/Chicago"
  },
  {
    "icao": "0AR2",
    "iata": "",
    "name": "Mission Field-Marotti Memorial Airport",
    "city": "Crawfordsville",
    "state": "Arkansas",
    "country": "US",
    "elevation": 217,
    "lat": 35.2667999268,
    "lon": -90.3500976563,
    "tz": "America/Chicago"
  },
  {
    "icao": "0AR3",
    "iata": "",
    "name": "Taylor's Air Strip",
    "city": "Deer",
    "state": "Arkansas",
    "country": "US",
    "elevation": 2160,
    "lat": 35.8989982605,
    "lon": -93.2610015869,
    "tz": "America/Chicago"
  },
  {
    "icao": "0AR7",
    "iata": "",
    "name": "Yancopin Airport",
    "city": "Watson",
    "state": "Arkansas",
    "country": "US",
    "elevation": 150,
    "lat": 33.9500999451,
    "lon": -91.1811981201,
    "tz": "America/Chicago"
  },
  {
    "icao": "0AZ1",
    "iata": "",
    "name": "Taylor Field",
    "city": "Marana",
    "state": "Arizona",
    "country": "US",
    "elevation": 2130,
    "lat": 32.3008995056,
    "lon": -111.3239974976,
    "tz": "America/Phoenix"
  },
  {
    "icao": "0AZ2",
    "iata": "",
    "name": "Western Sky Airport",
    "city": "Salome",
    "state": "Arizona",
    "country": "US",
    "elevation": 1930,
    "lat": 33.7780990601,
    "lon": -113.641998291,
    "tz": "America/Phoenix"
  },
  {
    "icao": "0AZ4",
    "iata": "",
    "name": "Flying Bucket Ranch Airport",
    "city": "Mobile",
    "state": "Arizona",
    "country": "US",
    "elevation": 1505,
    "lat": 32.9822998047,
    "lon": -112.2870025635,
    "tz": "America/Phoenix"
  },
  {
    "icao": "0AZ5",
    "iata": "",
    "name": "Castle Well Airport",
    "city": "Morristown",
    "state": "Arizona",
    "country": "US",
    "elevation": 2080,
    "lat": 33.8658981323,
    "lon": -112.6029968262,
    "tz": "America/Phoenix"
  },
  {
    "icao": "0CA1",
    "iata": "",
    "name": "Northside Airpark",
    "city": "Santa Maria",
    "state": "California",
    "country": "US",
    "elevation": 190,
    "lat": 34.9883003235,
    "lon": -120.4580001831,
    "tz": "America/Los_Angeles"
  },
  {
    "icao": "0CA3",
    "iata": "",
    "name": "Crawford Airport",
    "city": "Santa Ynez",
    "state": "California",
    "country": "US",
    "elevation": 570,
    "lat": 34.5875015259,
    "lon": -120.0130004883,
    "tz": "America/Los_Angeles"
  },
  {
    "icao": "0CA4",
    "iata": "",
    "name": "Shepherd Ranch Airport",
    "city": "Santa Ynez",
    "state": "California",
    "country": "US",
    "elevation": 660,
    "lat": 34.6222000122,
    "lon": -120.0650024414,
    "tz": "America/Los_Angeles"
  },
  {
    "icao": "0CA5",
    "iata": "",
    "name": "Hoffman Private Airport",
    "city": "Santa Ysabel",
    "state": "California",
    "country": "US",
    "elevation": 3100,
    "lat": 33.1431007385,
    "lon": -116.7450027466,
    "tz": "America/Los_Angeles"
  },
  {
    "icao": "0CA6",
    "iata": "",
    "name": "Emory Ranch Airport",
    "city": "Ocotillo",
    "state": "California",
    "country": "US",
    "elevation": 480,
    "lat": 32.7494444,
    "lon": -116.0161111,
    "tz": "America/Los_Angeles"
  },
  {
    "icao": "0CA8",
    "iata": "",
    "name": "Ward Ranch Airport",
    "city": "Aguanga",
    "state": "California",
    "country": "US",
    "elevation": 2500,
    "lat": 33.4277992249,
    "lon": -116.843002319,
    "tz": "America/Los_Angeles"
  },
  {
    "icao": "0CA9",
    "iata": "",
    "name": "Blech Ranch Airport",
    "city": "Shandon",
    "state": "California",
    "country": "US",
    "elevation": 1140,
    "lat": 35.5950012207,
    "lon": -120.338996887,
    "tz": "America/Los_Angeles"
  },
  {
    "icao": "0CD2",
    "iata": "",
    "name": "Foxx Valley Airport",
    "city": "Yoder",
    "state": "Colorado",
    "country": "US",
    "elevation": 5800,
    "lat": 38.6525001526,
    "lon": -104.23400116,
    "tz": "America/Denver"
  },
  {
    "icao": "0CD5",
    "iata": "",
    "name": "Pinon Canyon Airport",
    "city": "Trinidad",
    "state": "Colorado",
    "country": "US",
    "elevation": 5686,
    "lat": 37.4905014038,
    "lon": -104.143997192,
    "tz": "America/Denver"
  },
  {
    "icao": "0CD7",
    "iata": "",
    "name": "Fox Hole Airport",
    "city": "Lafayette",
    "state": "Colorado",
    "country": "US",
    "elevation": 5135,
    "lat": 40.004699707,
    "lon": -105.071998596,
    "tz": "America/Denver"
  },
  {
    "icao": "0CL0",
    "iata": "",
    "name": "Yosemite Hidden Lake Ranch Airport",
    "city": "Raymond",
    "state": "California",
    "country": "US",
    "elevation": 500,
    "lat": 37.1180000305,
    "lon": -119.913002014,
    "tz": "America/Los_Angeles"
  },
  {
    "icao": "0CL1",
    "iata": "",
    "name": "Krey Field Airport",
    "city": "Adelanto",
    "state": "California",
    "country": "US",
    "elevation": 3042,
    "lat": 34.5694007874,
    "lon": -117.555999756,
    "tz": "America/Los_Angeles"
  },
  {
    "icao": "0CL3",
    "iata": "",
    "name": "John Nichol's Field Airport",
    "city": "Chula Vista",
    "state": "California",
    "country": "US",
    "elevation": 490,
    "lat": 32.6330986023,
    "lon": -116.892997742,
    "tz": "America/Los_Angeles"
  },
  {
    "icao": "0CL6",
    "iata": "",
    "name": "Bohunk's Airpark",
    "city": "Lancaster",
    "state": "California",
    "country": "US",
    "elevation": 2410,
    "lat": 34.6946983337,
    "lon": -118.282997131,
    "tz": "America/Los_Angeles"
  },
  {
    "icao": "0CL8",
    "iata": "",
    "name": "Tera Ultralightport",
    "city": "Ridgecrest",
    "state": "California",
    "country": "US",
    "elevation": 2510,
    "lat": 35.5913009644,
    "lon": -117.634002686,
    "tz": "America/Los_Angeles"
  },
  {
    "icao": "0CO1",
    "iata": "",
    "name": "Dave's Airport",
    "city": "Louisville",
    "state": "Colorado",
    "country": "US",
    "elevation": 5170,
    "lat": 40.0332984924,
    "lon": -105.124000549,
    "tz": "America/Denver"
  },
  {
    "icao": "0CO2",
    "iata": "",
    "name": "Buckhorn Ranch Airport",
    "city": "Crested Butte",
    "state": "Colorado",
    "country": "US",
    "elevation": 8980,
    "lat": 38.8518981934,
    "lon": -106.932998657,
    "tz": "America/Denver"
  },
  {
    "icao": "0CO3",
    "iata": "",
    "name": "Greggs Nr 1 Airport",
    "city": "Bennett",
    "state": "Colorado",
    "country": "US",
    "elevation": 5373,
    "lat": 39.8894004822,
    "lon": -104.544998169,
    "tz": "America/Denver"
  },
  {
    "icao": "0CO5",
    "iata": "",
    "name": "Chenoweth Airport",
    "city": "Last Chance",
    "state": "Colorado",
    "country": "US",
    "elevation": 4697,
    "lat": 39.8333015442,
    "lon": -103.589996338,
    "tz": "America/Denver"
  },
  {
    "icao": "0CO6",
    "iata": "",
    "name": "Flying M & M Ranch Airport",
    "city": "Norwood",
    "state": "Colorado",
    "country": "US",
    "elevation": 8000,
    "lat": 38.2193984985,
    "lon": -108.212997437,
    "tz": "America/Denver"
  },
  {
    "icao": "0CO8",
    "iata": "",
    "name": "Cartwheel Airport",
    "city": "Mead",
    "state": "Colorado",
    "country": "US",
    "elevation": 5010,
    "lat": 40.2083015442,
    "lon": -105.013000488,
    "tz": "America/Denver"
  },
  {
    "icao": "0CO9",
    "iata": "",
    "name": "Van Treese Airport",
    "city": "Monte Vista",
    "state": "Colorado",
    "country": "US",
    "elevation": 7613,
    "lat": 37.6582984924,
    "lon": -106.033996582,
    "tz": "America/Denver"
  },
  {
    "icao": "0FA1",
    "iata": "",
    "name": "Frierson Grove Airport",
    "city": "Arcadia",
    "state": "Florida",
    "country": "US",
    "elevation": 65,
    "lat": 27.303899765,
    "lon": -81.8804016113,
    "tz": "America/New_York"
  },
  {
    "icao": "0FD0",
    "iata": "",
    "name": "Big 'G' Airport",
    "city": "Ormond Beach",
    "state": "Florida",
    "country": "US",
    "elevation": 40,
    "lat": 29.2674999237,
    "lon": -81.2301025391,
    "tz": "America/New_York"
  },
  {
    "icao": "0FD3",
    "iata": "",
    "name": "Dugger Field",
    "city": "Freeport",
    "state": "Florida",
    "country": "US",
    "elevation": 70,
    "lat": 30.4964008331,
    "lon": -86.0938034058,
    "tz": "America/Chicago"
  },
  {
    "icao": "0FD5",
    "iata": "",
    "name": "Breezy Knoll Airport",
    "city": "Defuniak Springs",
    "state": "Florida",
    "country": "US",
    "elevation": 235,
    "lat": 30.8201999664,
    "lon": -86.3443984985,
    "tz": "America/Chicago"
  },
  {
    "icao": "0FD9",
    "iata": "",
    "name": "Joy Farms Airport",
    "city": "Defuniak Springs",
    "state": "Florida",
    "country": "US",
    "elevation": 290,
    "lat": 30.6520996094,
    "lon": -86.1093978882,
    "tz": "America/Chicago"
  },
  {
    "icao": "0FL0",
    "iata": "",
    "name": "Harper's Fly-In Ranch Airport",
    "city": "Clewiston",
    "state": "Florida",
    "country": "US",
    "elevation": 30,
    "lat": 26.7306003571,
    "lon": -81.1639022827,
    "tz": "America/New_York"
  },
  {
    "icao": "0FL1",
    "iata": "",
    "name": "Thompson Airfield",
    "city": "Branford",
    "state": "Florida",
    "country": "US",
    "elevation": 110,
    "lat": 29.9832992554,
    "lon": -82.8356018066,
    "tz": "America/New_York"
  },
  {
    "icao": "0FL6",
    "iata": "",
    "name": "Stanchester Airport",
    "city": "Lithia",
    "state": "Florida",
    "country": "US",
    "elevation": 94,
    "lat": 27.8059005737,
    "lon": -82.1400985718,
    "tz": "America/New_York"
  },
  {
    "icao": "0FL9",
    "iata": "",
    "name": "Mc Daniel Ranch Inc. Airport",
    "city": "Clewiston",
    "state": "Florida",
    "country": "US",
    "elevation": 18,
    "lat": 26.3938999176,
    "lon": -81.0231018066,
    "tz": "America/New_York"
  },
  {
    "icao": "0GA0",
    "iata": "",
    "name": "Halls Flying Ranch Airport",
    "city": "Hampton",
    "state": "Georgia",
    "country": "US",
    "elevation": 800,
    "lat": 33.3562011719,
    "lon": -84.3671035767,
    "tz": "America/New_York"
  },
  {
    "icao": "0GA1",
    "iata": "",
    "name": "Mustang Field",
    "city": "Hartwell",
    "state": "Georgia",
    "country": "US",
    "elevation": 693,
    "lat": 34.4779014587,
    "lon": -82.897102356,
    "tz": "America/New_York"
  },
  {
    "icao": "0GA2",
    "iata": "",
    "name": "Airnautique Inc. Airport",
    "city": "Hartwell",
    "state": "Georgia",
    "country": "US",
    "elevation": 720,
    "lat": 34.3778991699,
    "lon": -82.9457015991,
    "tz": "America/New_York"
  },
  {
    "icao": "0GA3",
    "iata": "",
    "name": "Ayresouth Airport",
    "city": "Temple",
    "state": "Georgia",
    "country": "US",
    "elevation": 1287,
    "lat": 33.7700996399,
    "lon": -85.060798645,
    "tz": "America/New_York"
  },
  {
    "icao": "0GA4",
    "iata": "",
    "name": "Paradise Falls Airport",
    "city": "High Shoals",
    "state": "Georgia",
    "country": "US",
    "elevation": 736,
    "lat": 33.8129005432,
    "lon": -83.5056991577,
    "tz": "America/New_York"
  },
  {
    "icao": "0GA6",
    "iata": "",
    "name": "Sunset Strip",
    "city": "Jersey",
    "state": "Georgia",
    "country": "US",
    "elevation": 780,
    "lat": 33.7333984375,
    "lon": -83.8188018799,
    "tz": "America/New_York"
  },
  {
    "icao": "0GA7",
    "iata": "",
    "name": "Hickory Level Airfield",
    "city": "Temple",
    "state": "Georgia",
    "country": "US",
    "elevation": 1080,
    "lat": 33.6833992004,
    "lon": -84.9999008179,
    "tz": "America/New_York"
  },
  {
    "icao": "0GA8",
    "iata": "",
    "name": "Paso Fino Farm Airport",
    "city": "Valdosta",
    "state": "Georgia",
    "country": "US",
    "elevation": 200,
    "lat": 30.8871002197,
    "lon": -83.4160003662,
    "tz": "America/New_York"
  },
  {
    "icao": "0GA9",
    "iata": "",
    "name": "Roberta Industrial Park Airport",
    "city": "Roberta",
    "state": "Georgia",
    "country": "US",
    "elevation": 505,
    "lat": 32.7139015198,
    "lon": -84.0274963379,
    "tz": "America/New_York"
  },
  {
    "icao": "0GE0",
    "iata": "",
    "name": "Pinewood Airport",
    "city": "Douglasville",
    "state": "Georgia",
    "country": "US",
    "elevation": 1085,
    "lat": 33.7821006775,
    "lon": -84.8007965088,
    "tz": "America/New_York"
  },
  {
    "icao": "0GE1",
    "iata": "",
    "name": "Crystal Lake Airpark",
    "city": "Irwinville",
    "state": "Georgia",
    "country": "US",
    "elevation": 327,
    "lat": 31.6655006409,
    "lon": -83.4470977783,
    "tz": "America/New_York"
  },
  {
    "icao": "0GE3",
    "iata": "",
    "name": "Lookout Mountain Airport",
    "city": "Trenton",
    "state": "Georgia",
    "country": "US",
    "elevation": 563,
    "lat": 34.9047012329,
    "lon": -85.4597015381,
    "tz": "America/New_York"
  },
  {
    "icao": "0GE4",
    "iata": "",
    "name": "Pecan Patch Airstrip",
    "city": "Sunnyside",
    "state": "Georgia",
    "country": "US",
    "elevation": 860,
    "lat": 33.331401825,
    "lon": -84.2667007446,
    "tz": "America/New_York"
  },
  {
    "icao": "0GE5",
    "iata": "",
    "name": "Mountain Airpark",
    "city": "Cleveland",
    "state": "Georgia",
    "country": "US",
    "elevation": 1438,
    "lat": 34.5617980957,
    "lon": -83.7135009766,
    "tz": "America/New_York"
  },
  {
    "icao": "0GE7",
    "iata": "",
    "name": "Carpenter Airport",
    "city": "Appling",
    "state": "Georgia",
    "country": "US",
    "elevation": 450,
    "lat": 33.5203018188,
    "lon": -82.3724975586,
    "tz": "America/New_York"
  },
  {
    "icao": "0GE9",
    "iata": "",
    "name": "Pegasus Ranch Airport",
    "city": "Rocky Ford",
    "state": "Georgia",
    "country": "US",
    "elevation": 230,
    "lat": 32.693901062,
    "lon": -81.7985992432,
    "tz": "America/New_York"
  },
  {
    "icao": "0IA3",
    "iata": "",
    "name": "Hawkeye Airport",
    "city": "Waterloo",
    "state": "Iowa",
    "country": "US",
    "elevation": 883,
    "lat": 42.4347000122,
    "lon": -92.3280029297,
    "tz": "America/Chicago"
  },
  {
    "icao": "0IA4",
    "iata": "",
    "name": "Sharar Field",
    "city": "Mediapolis",
    "state": "Iowa",
    "country": "US",
    "elevation": 700,
    "lat": 41.0334014893,
    "lon": -91.0501022339,
    "tz": "America/Chicago"
  },
  {
    "icao": "0IA5",
    "iata": "",
    "name": "Moore Private Airport",
    "city": "Millerton",
    "state": "Iowa",
    "country": "US",
    "elevation": 1060,
    "lat": 40.8722000122,
    "lon": -93.2627029419,
    "tz": "America/Chicago"
  },
  {
    "icao": "0IA6",
    "iata": "",
    "name": "Rinehart Airport",
    "city": "Victor",
    "state": "Iowa",
    "country": "US",
    "elevation": 920,
    "lat": 41.6596984863,
    "lon": -92.2899017334,
    "tz": "America/Chicago"
  },
  {
    "icao": "0IA8",
    "iata": "",
    "name": "Hannen Airport",
    "city": "Center Point",
    "state": "Iowa",
    "country": "US",
    "elevation": 925,
    "lat": 42.2280006409,
    "lon": -91.7509994507,
    "tz": "America/Chicago"
  },
  {
    "icao": "0ID0",
    "iata": "",
    "name": "South Fork Ranch Airport",
    "city": "Featherville",
    "state": "Idaho",
    "country": "US",
    "elevation": 4861,
    "lat": 43.6063995361,
    "lon": -115.1070022583,
    "tz": "America/Boise"
  },
  {
    "icao": "0ID1",
    "iata": "",
    "name": "Ziggy's Airport",
    "city": "Filer",
    "state": "Idaho",
    "country": "US",
    "elevation": 3225,
    "lat": 42.6412010193,
    "lon": -114.6050033569,
    "tz": "America/Boise"
  },
  {
    "icao": "0ID2",
    "iata": "",
    "name": "Flying Joseph Ranch Airport",
    "city": "May",
    "state": "Idaho",
    "country": "US",
    "elevation": 5600,
    "lat": 44.4429016113,
    "lon": -113.773002625,
    "tz": "America/Boise"
  },
  {
    "icao": "0ID3",
    "iata": "",
    "name": "Coyote Run Airport",
    "city": "Mountain Home",
    "state": "Idaho",
    "country": "US",
    "elevation": 3150,
    "lat": 43.0758018494,
    "lon": -115.672996521,
    "tz": "America/Boise"
  },
  {
    "icao": "0ID4",
    "iata": "",
    "name": "Black Butte Ranch Airport",
    "city": "Shoshone",
    "state": "Idaho",
    "country": "US",
    "elevation": 4020,
    "lat": 43.0476989746,
    "lon": -114.4700012207,
    "tz": "America/Boise"
  },